{
  "lastUpdated": "2026-04-29T11:00:14Z",
  "centerLat": 26.4317,
  "centerLng": -81.8187,
  "distKm": 32,
  "backDays": 3,
  "observations": [
    {
      "speciesCode": "burowl",
      "comName": "Burrowing Owl",
      "sciName": "Athene cunicularia",
      "locId": "L886942",
      "locName": "Pelican Blvd. Baseball Fields",
      "obsDt": "2026-04-27 14:40",
      "howMany": 4,
      "lat": 26.5747491,
      "lng": -81.9834566,
      "obsValid": true,
      "obsReviewed": false,
      "locationPrivate": false,
      "subId": "S328604723",
      "displayName": "Burrowing Owl",
      "markerColor": "#8B4513"
    },
    {
      "speciesCode": "burowl",
      "comName": "Burrowing Owl",
      "sciName": "Athene cunicularia",
      "locId": "L32573639",
      "locName": "4025 SW 15th Ave, Cape Coral US-FL 26.57612, -82.00455",
      "obsDt": "2026-04-27 08:07",
      "howMany": 10,
      "lat": 26.576116,
      "lng": -82.004552,
      "obsValid": true,
      "obsReviewed": false,
      "locationPrivate": true,
      "subId": "S328413517",
      "displayName": "Burrowing Owl",
      "markerColor": "#8B4513"
    },
    {
      "speciesCode": "burowl",
      "comName": "Burrowing Owl",
      "sciName": "Athene cunicularia",
      "locId": "L64101502",
      "locName": "Pelican Baseball Complex, Cape Coral US-FL 26.57367, -81.98373",
      "obsDt": "2026-04-26 18:47",
      "howMany": 8,
      "lat": 26.573675,
      "lng": -81.983732,
      "obsValid": true,
      "obsReviewed": false,
      "locationPrivate": true,
      "subId": "S328198479",
      "displayName": "Burrowing Owl",
      "markerColor": "#8B4513"
    },
    {
      "speciesCode": "burowl",
      "comName": "Burrowing Owl",
      "sciName": "Athene cunicularia",
      "locId": "L30476332",
      "locName": "The Tropical Almond Bungalow",
      "obsDt": "2026-04-26 18:33",
      "howMany": 2,
      "lat": 26.564092,
      "lng": -82.0154577,
      "obsValid": true,
      "obsReviewed": false,
      "locationPrivate": true,
      "subId": "S328229237",
      "displayName": "Burrowing Owl",
      "markerColor": "#8B4513"
    },
    {
      "speciesCode": "burowl",
      "comName": "Burrowing Owl",
      "sciName": "Athene cunicularia",
      "locId": "L1340123",
      "locName": "Cape Coral Public Library",
      "obsDt": "2026-04-26 12:57",
      "howMany": 9,
      "lat": 26.5799318,
      "lng": -81.9950776,
      "obsValid": true,
      "obsReviewed": false,
      "locationPrivate": false,
      "subId": "S328746925",
      "displayName": "Burrowing Owl",
      "markerColor": "#8B4513"
    },
    {
      "speciesCode": "burowl",
      "comName": "Burrowing Owl",
      "sciName": "Athene cunicularia",
      "locId": "L1661673",
      "locName": "Jason Verdow Memorial Park",
      "obsDt": "2026-04-26 12:38",
      "howMany": 2,
      "lat": 26.6043769,
      "lng": -81.9576297,
      "obsValid": true,
      "obsReviewed": false,
      "locationPrivate": false,
      "subId": "S328000309",
      "displayName": "Burrowing Owl",
      "markerColor": "#8B4513"
    },
    {
      "speciesCode": "burowl",
      "comName": "Burrowing Owl",
      "sciName": "Athene cunicularia",
      "locId": "L64051917",
      "locName": "SW Cape Coral",
      "obsDt": "2026-04-26 11:00",
      "howMany": 1,
      "lat": 26.5569978,
      "lng": -82.0172794,
      "obsValid": true,
      "obsReviewed": false,
      "locationPrivate": true,
      "subId": "S327954819",
      "displayName": "Burrowing Owl",
      "markerColor": "#8B4513"
    },
    {
      "speciesCode": "burowl",
      "comName": "Burrowing Owl",
      "sciName": "Athene cunicularia",
      "locId": "L64016989",
      "locName": "5328 Pelican Blvd, Cape Coral US-FL 26.55140, -81.98253",
      "obsDt": "2026-04-26 09:53",
      "howMany": 1,
      "lat": 26.551403,
      "lng": -81.982534,
      "obsValid": true,
      "obsReviewed": false,
      "locationPrivate": true,
      "subId": "S327775577",
      "displayName": "Burrowing Owl",
      "markerColor": "#8B4513"
    },
    {
      "speciesCode": "rosspo1",
      "comName": "Roseate Spoonbill",
      "sciName": "Platalea ajaja",
      "locId": "L1070297",
      "locName": "Little Estero Lagoon",
      "obsDt": "2026-04-28 08:20",
      "howMany": 13,
      "lat": 26.4150482,
      "lng": -81.9031191,
      "obsValid": true,
      "obsReviewed": false,
      "locationPrivate": false,
      "subId": "S329022727",
      "displayName": "Roseate Spoonbill",
      "markerColor": "#FF69B4"
    },
    {
      "speciesCode": "rosspo1",
      "comName": "Roseate Spoonbill",
      "sciName": "Platalea ajaja",
      "locId": "L64237301",
      "locName": "J. N. Ding Darling National Wildlife Refuge, Sanibel US-FL 26.44831, -82.11340",
      "obsDt": "2026-04-28 07:41",
      "howMany": 4,
      "lat": 26.448313,
      "lng": -82.113402,
      "obsValid": true,
      "obsReviewed": false,
      "locationPrivate": true,
      "subId": "S328909008",
      "displayName": "Roseate Spoonbill",
      "markerColor": "#FF69B4"
    },
    {
      "speciesCode": "rosspo1",
      "comName": "Roseate Spoonbill",
      "sciName": "Platalea ajaja",
      "locId": "L830108",
      "locName": "Harns Marsh",
      "obsDt": "2026-04-28 07:22",
      "howMany": 1,
      "lat": 26.6496729,
      "lng": -81.6869336,
      "obsValid": true,
      "obsReviewed": false,
      "locationPrivate": false,
      "subId": "S328981082",
      "displayName": "Roseate Spoonbill",
      "markerColor": "#FF69B4"
    },
    {
      "speciesCode": "rosspo1",
      "comName": "Roseate Spoonbill",
      "sciName": "Platalea ajaja",
      "locId": "L10637588",
      "locName": "Flint Trail Stand--Orange Trailhead",
      "obsDt": "2026-04-28 06:39",
      "howMany": 1,
      "lat": 26.3325234,
      "lng": -81.6809881,
      "obsValid": true,
      "obsReviewed": false,
      "locationPrivate": false,
      "subId": "S329042657",
      "displayName": "Roseate Spoonbill",
      "markerColor": "#FF69B4"
    },
    {
      "speciesCode": "rosspo1",
      "comName": "Roseate Spoonbill",
      "sciName": "Platalea ajaja",
      "locId": "L6595361",
      "locName": "Bailey Homestead Wetlands Preserve",
      "obsDt": "2026-04-27 17:45",
      "howMany": 1,
      "lat": 26.4447115,
      "lng": -82.0491171,
      "obsValid": true,
      "obsReviewed": false,
      "locationPrivate": false,
      "subId": "S328744571",
      "displayName": "Roseate Spoonbill",
      "markerColor": "#FF69B4"
    },
    {
      "speciesCode": "rosspo1",
      "comName": "Roseate Spoonbill",
      "sciName": "Platalea ajaja",
      "locId": "L301036",
      "locName": "San Carlos Bay/Bunche Beach Preserve",
      "obsDt": "2026-04-27 16:28",
      "howMany": 1,
      "lat": 26.476174,
      "lng": -81.9673795,
      "obsValid": true,
      "obsReviewed": false,
      "locationPrivate": false,
      "subId": "S328670850",
      "displayName": "Roseate Spoonbill",
      "markerColor": "#FF69B4"
    },
    {
      "speciesCode": "rosspo1",
      "comName": "Roseate Spoonbill",
      "sciName": "Platalea ajaja",
      "locId": "L64180582",
      "locName": "Spanish Wells Golf and Country Club, Bonita Springs US-FL 26.31842, -81.79410",
      "obsDt": "2026-04-27 15:08",
      "howMany": 1,
      "lat": 26.318418,
      "lng": -81.794103,
      "obsValid": true,
      "obsReviewed": false,
      "locationPrivate": true,
      "subId": "S328611743",
      "displayName": "Roseate Spoonbill",
      "markerColor": "#FF69B4"
    },
    {
      "speciesCode": "rosspo1",
      "comName": "Roseate Spoonbill",
      "sciName": "Platalea ajaja",
      "locId": "L64173052",
      "locName": "J. N. Ding Darling National Wildlife Refuge, Sanibel US-FL 26.46281, -82.13348",
      "obsDt": "2026-04-27 13:49",
      "howMany": 1,
      "lat": 26.462809,
      "lng": -82.13348,
      "obsValid": true,
      "obsReviewed": false,
      "locationPrivate": true,
      "subId": "S328574597",
      "displayName": "Roseate Spoonbill",
      "markerColor": "#FF69B4"
    },
    {
      "speciesCode": "rosspo1",
      "comName": "Roseate Spoonbill",
      "sciName": "Platalea ajaja",
      "locId": "L823147",
      "locName": "J. N. Ding Darling NWR--Wildlife Drive",
      "obsDt": "2026-04-27 12:15",
      "howMany": 1,
      "lat": 26.4540529,
      "lng": -82.1155071,
      "obsValid": true,
      "obsReviewed": false,
      "locationPrivate": false,
      "subId": "S328584761",
      "displayName": "Roseate Spoonbill",
      "markerColor": "#FF69B4"
    },
    {
      "speciesCode": "rosspo1",
      "comName": "Roseate Spoonbill",
      "sciName": "Platalea ajaja",
      "locId": "L41324600",
      "locName": "Pond at north end of Trawler Ln, Saint James City US-FL",
      "obsDt": "2026-04-27 08:55",
      "howMany": 1,
      "lat": 26.506181,
      "lng": -82.091138,
      "obsValid": true,
      "obsReviewed": false,
      "locationPrivate": true,
      "subId": "S328473398",
      "displayName": "Roseate Spoonbill",
      "markerColor": "#FF69B4"
    },
    {
      "speciesCode": "rosspo1",
      "comName": "Roseate Spoonbill",
      "sciName": "Platalea ajaja",
      "locId": "L1142803",
      "locName": "Little Estero Island Critical Wildlife Area",
      "obsDt": "2026-04-27 08:15",
      "howMany": 14,
      "lat": 26.4130015,
      "lng": -81.9034436,
      "obsValid": true,
      "obsReviewed": false,
      "locationPrivate": false,
      "subId": "S328649784",
      "displayName": "Roseate Spoonbill",
      "markerColor": "#FF69B4"
    },
    {
      "speciesCode": "rosspo1",
      "comName": "Roseate Spoonbill",
      "sciName": "Platalea ajaja",
      "locId": "L12757465",
      "locName": "J.N. Ding Darling National Wildlife Refuge, Sanibel US-FL 26.45145, -82.11297",
      "obsDt": "2026-04-27 07:59",
      "howMany": 1,
      "lat": 26.451452,
      "lng": -82.112968,
      "obsValid": true,
      "obsReviewed": false,
      "locationPrivate": true,
      "subId": "S328393502",
      "displayName": "Roseate Spoonbill",
      "markerColor": "#FF69B4"
    },
    {
      "speciesCode": "rosspo1",
      "comName": "Roseate Spoonbill",
      "sciName": "Platalea ajaja",
      "locId": "L127399",
      "locName": "J. N. Ding Darling NWR--Bailey Tract",
      "obsDt": "2026-04-27 07:02",
      "howMany": 5,
      "lat": 26.4276,
      "lng": -82.0819,
      "obsValid": true,
      "obsReviewed": false,
      "locationPrivate": false,
      "subId": "S328375321",
      "displayName": "Roseate Spoonbill",
      "markerColor": "#FF69B4"
    },
    {
      "speciesCode": "rosspo1",
      "comName": "Roseate Spoonbill",
      "sciName": "Platalea ajaja",
      "locId": "L631290",
      "locName": "West Marsh Preserve",
      "obsDt": "2026-04-27 06:36",
      "howMany": 1,
      "lat": 26.6475354,
      "lng": -81.7027473,
      "obsValid": true,
      "obsReviewed": false,
      "locationPrivate": false,
      "subId": "S328582479",
      "displayName": "Roseate Spoonbill",
      "markerColor": "#FF69B4"
    },
    {
      "speciesCode": "rosspo1",
      "comName": "Roseate Spoonbill",
      "sciName": "Platalea ajaja",
      "locId": "L1438140",
      "locName": "Rotary Park Environmental Center",
      "obsDt": "2026-04-26 09:15",
      "howMany": 1,
      "lat": 26.5467025,
      "lng": -81.9806344,
      "obsValid": true,
      "obsReviewed": false,
      "locationPrivate": false,
      "subId": "S327805602",
      "displayName": "Roseate Spoonbill",
      "markerColor": "#FF69B4"
    },
    {
      "speciesCode": "rosspo1",
      "comName": "Roseate Spoonbill",
      "sciName": "Platalea ajaja",
      "locId": "L127397",
      "locName": "J. N. Ding Darling NWR (please consider using a more precise location)",
      "obsDt": "2026-04-26 08:38",
      "howMany": 3,
      "lat": 26.4476747,
      "lng": -82.1111298,
      "obsValid": true,
      "obsReviewed": false,
      "locationPrivate": false,
      "subId": "S327833881",
      "displayName": "Roseate Spoonbill",
      "markerColor": "#FF69B4"
    },
    {
      "speciesCode": "limpki",
      "comName": "Limpkin",
      "sciName": "Aramus guarauna",
      "locId": "L10487542",
      "locName": "US-41--Walmart",
      "obsDt": "2026-04-28 14:50",
      "howMany": 1,
      "lat": 26.526556,
      "lng": -81.8702003,
      "obsValid": true,
      "obsReviewed": false,
      "locationPrivate": false,
      "subId": "S329070006",
      "displayName": "Limpkin",
      "markerColor": "#D2691E"
    },
    {
      "speciesCode": "limpki",
      "comName": "Limpkin",
      "sciName": "Aramus guarauna",
      "locId": "L830108",
      "locName": "Harns Marsh",
      "obsDt": "2026-04-28 10:39",
      "howMany": 3,
      "lat": 26.6496729,
      "lng": -81.6869336,
      "obsValid": true,
      "obsReviewed": false,
      "locationPrivate": false,
      "subId": "S328978319",
      "displayName": "Limpkin",
      "markerColor": "#D2691E"
    },
    {
      "speciesCode": "limpki",
      "comName": "Limpkin",
      "sciName": "Aramus guarauna",
      "locId": "L4138659",
      "locName": "IslandWalk (access by permission only)",
      "obsDt": "2026-04-28 09:17",
      "howMany": 7,
      "lat": 26.2483903,
      "lng": -81.7121029,
      "obsValid": true,
      "obsReviewed": false,
      "locationPrivate": false,
      "subId": "S328973064",
      "displayName": "Limpkin",
      "markerColor": "#D2691E"
    },
    {
      "speciesCode": "limpki",
      "comName": "Limpkin",
      "sciName": "Aramus guarauna",
      "locId": "L63802904",
      "locName": "Commons Pool",
      "obsDt": "2026-04-27 19:01",
      "howMany": 1,
      "lat": 26.584302,
      "lng": -81.750201,
      "obsValid": true,
      "obsReviewed": false,
      "locationPrivate": true,
      "subId": "S328721684",
      "displayName": "Limpkin",
      "markerColor": "#D2691E"
    },
    {
      "speciesCode": "limpki",
      "comName": "Limpkin",
      "sciName": "Aramus guarauna",
      "locId": "L4145387",
      "locName": "Del Prado Linear Park",
      "obsDt": "2026-04-27 15:36",
      "howMany": 2,
      "lat": 26.675801,
      "lng": -81.9420862,
      "obsValid": true,
      "obsReviewed": false,
      "locationPrivate": false,
      "subId": "S328643436",
      "displayName": "Limpkin",
      "markerColor": "#D2691E"
    },
    {
      "speciesCode": "limpki",
      "comName": "Limpkin",
      "sciName": "Aramus guarauna",
      "locId": "L631290",
      "locName": "West Marsh Preserve",
      "obsDt": "2026-04-27 06:36",
      "howMany": 10,
      "lat": 26.6475354,
      "lng": -81.7027473,
      "obsValid": true,
      "obsReviewed": false,
      "locationPrivate": false,
      "subId": "S328582479",
      "displayName": "Limpkin",
      "markerColor": "#D2691E"
    },
    {
      "speciesCode": "limpki",
      "comName": "Limpkin",
      "sciName": "Aramus guarauna",
      "locId": "L797480",
      "locName": "Fred W. Coyle Freedom Park",
      "obsDt": "2026-04-26 12:30",
      "howMany": 1,
      "lat": 26.1745813,
      "lng": -81.7883635,
      "obsValid": true,
      "obsReviewed": false,
      "locationPrivate": false,
      "subId": "S328064024",
      "displayName": "Limpkin",
      "markerColor": "#D2691E"
    },
    {
      "speciesCode": "limpki",
      "comName": "Limpkin",
      "sciName": "Aramus guarauna",
      "locId": "L53402167",
      "locName": "Six Mile Cypress Slough",
      "obsDt": "2026-04-26 10:00",
      "howMany": 1,
      "lat": 26.57145,
      "lng": -81.826134,
      "obsValid": true,
      "obsReviewed": false,
      "locationPrivate": true,
      "subId": "S328543235",
      "displayName": "Limpkin",
      "markerColor": "#D2691E"
    },
    {
      "speciesCode": "limpki",
      "comName": "Limpkin",
      "sciName": "Aramus guarauna",
      "locId": "L127407",
      "locName": "Audubon Corkscrew Swamp Sanctuary",
      "obsDt": "2026-04-26 09:11",
      "howMany": 1,
      "lat": 26.375442,
      "lng": -81.6040206,
      "obsValid": true,
      "obsReviewed": false,
      "locationPrivate": false,
      "subId": "S327892382",
      "displayName": "Limpkin",
      "markerColor": "#D2691E"
    }
  ]
}