{
  "lastUpdated": "2026-04-20T19:08:41Z",
  "centerLat": 26.4317,
  "centerLng": -81.8187,
  "distKm": 32,
  "backDays": 3,
  "observations": [
    {
      "speciesCode": "burowl",
      "comName": "Burrowing Owl",
      "sciName": "Athene cunicularia",
      "locId": "L1340123",
      "locName": "Cape Coral Public Library",
      "obsDt": "2026-04-20 11:27",
      "howMany": 3,
      "lat": 26.5799318,
      "lng": -81.9950776,
      "obsValid": true,
      "obsReviewed": false,
      "locationPrivate": false,
      "subId": "S324683705",
      "displayName": "Burrowing Owl",
      "markerColor": "#8B4513"
    },
    {
      "speciesCode": "burowl",
      "comName": "Burrowing Owl",
      "sciName": "Athene cunicularia",
      "locId": "L8908003",
      "locName": "SW 9th Ave and 11th AVe",
      "obsDt": "2026-04-19 19:14",
      "howMany": 5,
      "lat": 26.5709032,
      "lng": -81.9937058,
      "obsValid": true,
      "obsReviewed": false,
      "locationPrivate": false,
      "subId": "S324425819",
      "displayName": "Burrowing Owl",
      "markerColor": "#8B4513"
    },
    {
      "speciesCode": "burowl",
      "comName": "Burrowing Owl",
      "sciName": "Athene cunicularia",
      "locId": "L886942",
      "locName": "Pelican Blvd. Baseball Fields",
      "obsDt": "2026-04-19 12:40",
      "howMany": 5,
      "lat": 26.5747491,
      "lng": -81.9834566,
      "obsValid": true,
      "obsReviewed": false,
      "locationPrivate": false,
      "subId": "S324283702",
      "displayName": "Burrowing Owl",
      "markerColor": "#8B4513"
    },
    {
      "speciesCode": "burowl",
      "comName": "Burrowing Owl",
      "sciName": "Athene cunicularia",
      "locId": "L631290",
      "locName": "West Marsh Preserve",
      "obsDt": "2026-04-19 06:59",
      "howMany": 1,
      "lat": 26.6475354,
      "lng": -81.7027473,
      "obsValid": true,
      "obsReviewed": false,
      "locationPrivate": false,
      "subId": "S324177516",
      "displayName": "Burrowing Owl",
      "markerColor": "#8B4513"
    },
    {
      "speciesCode": "burowl",
      "comName": "Burrowing Owl",
      "sciName": "Athene cunicularia",
      "locId": "L5740111",
      "locName": "Aircraft Observation Marsh",
      "obsDt": "2026-04-18 12:13",
      "howMany": 1,
      "lat": 26.532121,
      "lng": -81.766767,
      "obsValid": true,
      "obsReviewed": false,
      "locationPrivate": false,
      "subId": "S323609125",
      "displayName": "Burrowing Owl",
      "markerColor": "#8B4513"
    },
    {
      "speciesCode": "burowl",
      "comName": "Burrowing Owl",
      "sciName": "Athene cunicularia",
      "locId": "L57701585",
      "locName": "2723 Archer Parkway East, Cape Coral, Florida, US (26.601, -81.952)\nHome",
      "obsDt": "2026-04-18 10:19",
      "howMany": 9,
      "lat": 26.6009419,
      "lng": -81.9519744,
      "obsValid": true,
      "obsReviewed": false,
      "locationPrivate": true,
      "subId": "S323643326",
      "displayName": "Burrowing Owl",
      "markerColor": "#8B4513"
    },
    {
      "speciesCode": "rosspo1",
      "comName": "Roseate Spoonbill",
      "sciName": "Platalea ajaja",
      "locId": "L63406574",
      "locName": "375 Sanctuary Rd, Naples US-FL (26.3755,-81.6041)",
      "obsDt": "2026-04-20 09:17",
      "howMany": 1,
      "lat": 26.375514,
      "lng": -81.604135,
      "obsValid": true,
      "obsReviewed": false,
      "locationPrivate": true,
      "subId": "S324700870",
      "displayName": "Roseate Spoonbill",
      "markerColor": "#FF69B4"
    },
    {
      "speciesCode": "rosspo1",
      "comName": "Roseate Spoonbill",
      "sciName": "Platalea ajaja",
      "locId": "L127397",
      "locName": "J. N. Ding Darling NWR (please consider using a more precise location)",
      "obsDt": "2026-04-20 07:00",
      "howMany": 12,
      "lat": 26.4476747,
      "lng": -82.1111298,
      "obsValid": true,
      "obsReviewed": false,
      "locationPrivate": false,
      "subId": "S324729257",
      "displayName": "Roseate Spoonbill",
      "markerColor": "#FF69B4"
    },
    {
      "speciesCode": "rosspo1",
      "comName": "Roseate Spoonbill",
      "sciName": "Platalea ajaja",
      "locId": "L6595361",
      "locName": "Bailey Homestead Wetlands Preserve",
      "obsDt": "2026-04-19 19:00",
      "howMany": 1,
      "lat": 26.4447115,
      "lng": -82.0491171,
      "obsValid": true,
      "obsReviewed": false,
      "locationPrivate": false,
      "subId": "S324465026",
      "displayName": "Roseate Spoonbill",
      "markerColor": "#FF69B4"
    },
    {
      "speciesCode": "rosspo1",
      "comName": "Roseate Spoonbill",
      "sciName": "Platalea ajaja",
      "locId": "L63358096",
      "locName": "Before Apaloosa Ln., Salrose Ln.",
      "obsDt": "2026-04-19 18:37",
      "howMany": 3,
      "lat": 26.5488537,
      "lng": -81.8097232,
      "obsValid": true,
      "obsReviewed": false,
      "locationPrivate": true,
      "subId": "S324455960",
      "displayName": "Roseate Spoonbill",
      "markerColor": "#FF69B4"
    },
    {
      "speciesCode": "rosspo1",
      "comName": "Roseate Spoonbill",
      "sciName": "Platalea ajaja",
      "locId": "L59336620",
      "locName": "Bench near sanctuary",
      "obsDt": "2026-04-19 15:17",
      "howMany": 1,
      "lat": 26.345851,
      "lng": -81.823796,
      "obsValid": true,
      "obsReviewed": false,
      "locationPrivate": true,
      "subId": "S324336775",
      "displayName": "Roseate Spoonbill",
      "markerColor": "#FF69B4"
    },
    {
      "speciesCode": "rosspo1",
      "comName": "Roseate Spoonbill",
      "sciName": "Platalea ajaja",
      "locId": "L63309446",
      "locName": "1200 Periwinkle Way, Sanibel US-FL 26.44554, -82.04590",
      "obsDt": "2026-04-19 12:26",
      "howMany": 4,
      "lat": 26.445535,
      "lng": -82.045904,
      "obsValid": true,
      "obsReviewed": false,
      "locationPrivate": true,
      "subId": "S324233188",
      "displayName": "Roseate Spoonbill",
      "markerColor": "#FF69B4"
    },
    {
      "speciesCode": "rosspo1",
      "comName": "Roseate Spoonbill",
      "sciName": "Platalea ajaja",
      "locId": "L1070297",
      "locName": "Little Estero Lagoon",
      "obsDt": "2026-04-19 07:51",
      "howMany": 7,
      "lat": 26.4150482,
      "lng": -81.9031191,
      "obsValid": true,
      "obsReviewed": false,
      "locationPrivate": false,
      "subId": "S324095556",
      "displayName": "Roseate Spoonbill",
      "markerColor": "#FF69B4"
    },
    {
      "speciesCode": "rosspo1",
      "comName": "Roseate Spoonbill",
      "sciName": "Platalea ajaja",
      "locId": "L3444435",
      "locName": "J. N. Ding Darling NWR--Education Center",
      "obsDt": "2026-04-19 07:00",
      "howMany": 2,
      "lat": 26.4456225,
      "lng": -82.1128893,
      "obsValid": true,
      "obsReviewed": false,
      "locationPrivate": false,
      "subId": "S324089337",
      "displayName": "Roseate Spoonbill",
      "markerColor": "#FF69B4"
    },
    {
      "speciesCode": "rosspo1",
      "comName": "Roseate Spoonbill",
      "sciName": "Platalea ajaja",
      "locId": "L4355354",
      "locName": "Hendry Creek headwater wetland area",
      "obsDt": "2026-04-19 06:51",
      "howMany": 1,
      "lat": 26.5198636,
      "lng": -81.8755352,
      "obsValid": true,
      "obsReviewed": false,
      "locationPrivate": false,
      "subId": "S324032154",
      "displayName": "Roseate Spoonbill",
      "markerColor": "#FF69B4"
    },
    {
      "speciesCode": "rosspo1",
      "comName": "Roseate Spoonbill",
      "sciName": "Platalea ajaja",
      "locId": "L678986",
      "locName": "Pond Apple Trail",
      "obsDt": "2026-04-18 19:10",
      "howMany": 3,
      "lat": 26.4474057,
      "lng": -82.0401907,
      "obsValid": true,
      "obsReviewed": false,
      "locationPrivate": false,
      "subId": "S324201881",
      "displayName": "Roseate Spoonbill",
      "markerColor": "#FF69B4"
    },
    {
      "speciesCode": "rosspo1",
      "comName": "Roseate Spoonbill",
      "sciName": "Platalea ajaja",
      "locId": "L823147",
      "locName": "J. N. Ding Darling NWR--Wildlife Drive",
      "obsDt": "2026-04-18 07:25",
      "howMany": 10,
      "lat": 26.4540529,
      "lng": -82.1155071,
      "obsValid": true,
      "obsReviewed": false,
      "locationPrivate": false,
      "subId": "S323712789",
      "displayName": "Roseate Spoonbill",
      "markerColor": "#FF69B4"
    },
    {
      "speciesCode": "rosspo1",
      "comName": "Roseate Spoonbill",
      "sciName": "Platalea ajaja",
      "locId": "L301036",
      "locName": "San Carlos Bay/Bunche Beach Preserve",
      "obsDt": "2026-04-18 06:55",
      "howMany": 2,
      "lat": 26.476174,
      "lng": -81.9673795,
      "obsValid": true,
      "obsReviewed": false,
      "locationPrivate": false,
      "subId": "S323552374",
      "displayName": "Roseate Spoonbill",
      "markerColor": "#FF69B4"
    },
    {
      "speciesCode": "rosspo1",
      "comName": "Roseate Spoonbill",
      "sciName": "Platalea ajaja",
      "locId": "L55449050",
      "locName": "Horseshoe",
      "obsDt": "2026-04-17 16:45",
      "howMany": 1,
      "lat": 26.348611,
      "lng": -81.820503,
      "obsValid": true,
      "obsReviewed": false,
      "locationPrivate": true,
      "subId": "S323140695",
      "displayName": "Roseate Spoonbill",
      "markerColor": "#FF69B4"
    },
    {
      "speciesCode": "limpki",
      "comName": "Limpkin",
      "sciName": "Aramus guarauna",
      "locId": "L797480",
      "locName": "Fred W. Coyle Freedom Park",
      "obsDt": "2026-04-20 10:39",
      "howMany": 1,
      "lat": 26.1745813,
      "lng": -81.7883635,
      "obsValid": true,
      "obsReviewed": false,
      "locationPrivate": false,
      "subId": "S324683152",
      "displayName": "Limpkin",
      "markerColor": "#D2691E"
    },
    {
      "speciesCode": "limpki",
      "comName": "Limpkin",
      "sciName": "Aramus guarauna",
      "locId": "L127407",
      "locName": "Audubon Corkscrew Swamp Sanctuary",
      "obsDt": "2026-04-20 10:34",
      "howMany": 1,
      "lat": 26.375442,
      "lng": -81.6040206,
      "obsValid": true,
      "obsReviewed": false,
      "locationPrivate": false,
      "subId": "S324711875",
      "displayName": "Limpkin",
      "markerColor": "#D2691E"
    },
    {
      "speciesCode": "limpki",
      "comName": "Limpkin",
      "sciName": "Aramus guarauna",
      "locId": "L424819",
      "locName": "Six Mile Cypress Slough Preserve",
      "obsDt": "2026-04-20 07:18",
      "howMany": 1,
      "lat": 26.5716209,
      "lng": -81.8258929,
      "obsValid": true,
      "obsReviewed": false,
      "locationPrivate": false,
      "subId": "S324599449",
      "displayName": "Limpkin",
      "markerColor": "#D2691E"
    },
    {
      "speciesCode": "limpki",
      "comName": "Limpkin",
      "sciName": "Aramus guarauna",
      "locId": "L830108",
      "locName": "Harns Marsh",
      "obsDt": "2026-04-19 15:13",
      "howMany": 3,
      "lat": 26.6496729,
      "lng": -81.6869336,
      "obsValid": true,
      "obsReviewed": false,
      "locationPrivate": false,
      "subId": "S324375882",
      "displayName": "Limpkin",
      "markerColor": "#D2691E"
    },
    {
      "speciesCode": "limpki",
      "comName": "Limpkin",
      "sciName": "Aramus guarauna",
      "locId": "L63278104",
      "locName": "10711 Vivaldi Ct, Fort Myers US-FL 26.47647, -81.77930",
      "obsDt": "2026-04-19 08:57",
      "howMany": 1,
      "lat": 26.476466,
      "lng": -81.779297,
      "obsValid": true,
      "obsReviewed": false,
      "locationPrivate": true,
      "subId": "S324088035",
      "displayName": "Limpkin",
      "markerColor": "#D2691E"
    },
    {
      "speciesCode": "limpki",
      "comName": "Limpkin",
      "sciName": "Aramus guarauna",
      "locId": "L631290",
      "locName": "West Marsh Preserve",
      "obsDt": "2026-04-19 06:59",
      "howMany": 15,
      "lat": 26.6475354,
      "lng": -81.7027473,
      "obsValid": true,
      "obsReviewed": false,
      "locationPrivate": false,
      "subId": "S324177516",
      "displayName": "Limpkin",
      "markerColor": "#D2691E"
    },
    {
      "speciesCode": "limpki",
      "comName": "Limpkin",
      "sciName": "Aramus guarauna",
      "locId": "L55756812",
      "locName": "Spoonbill Lane",
      "obsDt": "2026-04-18 18:08",
      "howMany": 2,
      "lat": 26.207023,
      "lng": -81.770007,
      "obsValid": true,
      "obsReviewed": false,
      "locationPrivate": true,
      "subId": "S323787063",
      "displayName": "Limpkin",
      "markerColor": "#D2691E"
    },
    {
      "speciesCode": "limpki",
      "comName": "Limpkin",
      "sciName": "Aramus guarauna",
      "locId": "L60963303",
      "locName": "Southmont Cove",
      "obsDt": "2026-04-18 17:56",
      "howMany": 1,
      "lat": 26.4855714,
      "lng": -81.9032209,
      "obsValid": true,
      "obsReviewed": false,
      "locationPrivate": true,
      "subId": "S323802856",
      "displayName": "Limpkin",
      "markerColor": "#D2691E"
    },
    {
      "speciesCode": "limpki",
      "comName": "Limpkin",
      "sciName": "Aramus guarauna",
      "locId": "L63202938",
      "locName": "ArrowHead Golf Club, Naples US-FL 26.27087, -81.71213",
      "obsDt": "2026-04-18 16:16",
      "howMany": 4,
      "lat": 26.270867,
      "lng": -81.712135,
      "obsValid": true,
      "obsReviewed": false,
      "locationPrivate": true,
      "subId": "S323740739",
      "displayName": "Limpkin",
      "markerColor": "#D2691E"
    },
    {
      "speciesCode": "limpki",
      "comName": "Limpkin",
      "sciName": "Aramus guarauna",
      "locId": "L39942296",
      "locName": "2305 SE Fifth Terr, Cape Coral US-FL 26.64286, -81.92608",
      "obsDt": "2026-04-18 16:02",
      "howMany": 1,
      "lat": 26.642858,
      "lng": -81.926077,
      "obsValid": true,
      "obsReviewed": false,
      "locationPrivate": true,
      "subId": "S323868951",
      "displayName": "Limpkin",
      "markerColor": "#D2691E"
    },
    {
      "speciesCode": "limpki",
      "comName": "Limpkin",
      "sciName": "Aramus guarauna",
      "locId": "L10487542",
      "locName": "US-41--Walmart",
      "obsDt": "2026-04-18 09:38",
      "howMany": 1,
      "lat": 26.526556,
      "lng": -81.8702003,
      "obsValid": true,
      "obsReviewed": false,
      "locationPrivate": false,
      "subId": "S323553379",
      "displayName": "Limpkin",
      "markerColor": "#D2691E"
    },
    {
      "speciesCode": "limpki",
      "comName": "Limpkin",
      "sciName": "Aramus guarauna",
      "locId": "L4138659",
      "locName": "IslandWalk (access by permission only)",
      "obsDt": "2026-04-18 09:17",
      "howMany": 7,
      "lat": 26.2483903,
      "lng": -81.7121029,
      "obsValid": true,
      "obsReviewed": false,
      "locationPrivate": false,
      "subId": "S323579694",
      "displayName": "Limpkin",
      "markerColor": "#D2691E"
    },
    {
      "speciesCode": "limpki",
      "comName": "Limpkin",
      "sciName": "Aramus guarauna",
      "locId": "L16854171",
      "locName": "Lakes Regional Park",
      "obsDt": "2026-04-18 06:55",
      "howMany": 2,
      "lat": 26.528372,
      "lng": -81.877415,
      "obsValid": true,
      "obsReviewed": false,
      "locationPrivate": true,
      "subId": "S323542141",
      "displayName": "Limpkin",
      "markerColor": "#D2691E"
    },
    {
      "speciesCode": "limpki",
      "comName": "Limpkin",
      "sciName": "Aramus guarauna",
      "locId": "L63078583",
      "locName": "Pine Island Rd near Andalusia",
      "obsDt": "2026-04-17 17:50",
      "howMany": 1,
      "lat": 26.6624874,
      "lng": -81.9510933,
      "obsValid": true,
      "obsReviewed": false,
      "locationPrivate": true,
      "subId": "S323154428",
      "displayName": "Limpkin",
      "markerColor": "#D2691E"
    }
  ]
}