{
  "lastUpdated": "2026-04-27T19:25:22Z",
  "centerLat": 26.4317,
  "centerLng": -81.8187,
  "distKm": 32,
  "backDays": 3,
  "observations": [
    {
      "speciesCode": "burowl",
      "comName": "Burrowing Owl",
      "sciName": "Athene cunicularia",
      "locId": "L64101502",
      "locName": "Pelican Baseball Complex, Cape Coral US-FL 26.57367, -81.98373",
      "obsDt": "2026-04-26 18:47",
      "howMany": 8,
      "lat": 26.573675,
      "lng": -81.983732,
      "obsValid": true,
      "obsReviewed": false,
      "locationPrivate": true,
      "subId": "S328198479",
      "displayName": "Burrowing Owl",
      "markerColor": "#8B4513"
    },
    {
      "speciesCode": "burowl",
      "comName": "Burrowing Owl",
      "sciName": "Athene cunicularia",
      "locId": "L30476332",
      "locName": "The Tropical Almond Bungalow",
      "obsDt": "2026-04-26 18:33",
      "howMany": 2,
      "lat": 26.564092,
      "lng": -82.0154577,
      "obsValid": true,
      "obsReviewed": false,
      "locationPrivate": true,
      "subId": "S328229237",
      "displayName": "Burrowing Owl",
      "markerColor": "#8B4513"
    },
    {
      "speciesCode": "burowl",
      "comName": "Burrowing Owl",
      "sciName": "Athene cunicularia",
      "locId": "L1661673",
      "locName": "Jason Verdow Memorial Park",
      "obsDt": "2026-04-26 12:38",
      "howMany": 2,
      "lat": 26.6043769,
      "lng": -81.9576297,
      "obsValid": true,
      "obsReviewed": false,
      "locationPrivate": false,
      "subId": "S328000309",
      "displayName": "Burrowing Owl",
      "markerColor": "#8B4513"
    },
    {
      "speciesCode": "burowl",
      "comName": "Burrowing Owl",
      "sciName": "Athene cunicularia",
      "locId": "L64051917",
      "locName": "SW Cape Coral",
      "obsDt": "2026-04-26 11:00",
      "howMany": 1,
      "lat": 26.5569978,
      "lng": -82.0172794,
      "obsValid": true,
      "obsReviewed": false,
      "locationPrivate": true,
      "subId": "S327954819",
      "displayName": "Burrowing Owl",
      "markerColor": "#8B4513"
    },
    {
      "speciesCode": "burowl",
      "comName": "Burrowing Owl",
      "sciName": "Athene cunicularia",
      "locId": "L64016989",
      "locName": "5328 Pelican Blvd, Cape Coral US-FL 26.55140, -81.98253",
      "obsDt": "2026-04-26 09:53",
      "howMany": 1,
      "lat": 26.551403,
      "lng": -81.982534,
      "obsValid": true,
      "obsReviewed": false,
      "locationPrivate": true,
      "subId": "S327775577",
      "displayName": "Burrowing Owl",
      "markerColor": "#8B4513"
    },
    {
      "speciesCode": "burowl",
      "comName": "Burrowing Owl",
      "sciName": "Athene cunicularia",
      "locId": "L631290",
      "locName": "West Marsh Preserve",
      "obsDt": "2026-04-25 16:15",
      "howMany": 2,
      "lat": 26.6475354,
      "lng": -81.7027473,
      "obsValid": true,
      "obsReviewed": false,
      "locationPrivate": false,
      "subId": "S327351437",
      "displayName": "Burrowing Owl",
      "markerColor": "#8B4513"
    },
    {
      "speciesCode": "rosspo1",
      "comName": "Roseate Spoonbill",
      "sciName": "Platalea ajaja",
      "locId": "L127399",
      "locName": "J. N. Ding Darling NWR--Bailey Tract",
      "obsDt": "2026-04-27 07:02",
      "howMany": 5,
      "lat": 26.4276,
      "lng": -82.0819,
      "obsValid": true,
      "obsReviewed": false,
      "locationPrivate": false,
      "subId": "S328375321",
      "displayName": "Roseate Spoonbill",
      "markerColor": "#FF69B4"
    },
    {
      "speciesCode": "rosspo1",
      "comName": "Roseate Spoonbill",
      "sciName": "Platalea ajaja",
      "locId": "L6595361",
      "locName": "Bailey Homestead Wetlands Preserve",
      "obsDt": "2026-04-26 14:20",
      "howMany": 1,
      "lat": 26.4447115,
      "lng": -82.0491171,
      "obsValid": true,
      "obsReviewed": false,
      "locationPrivate": false,
      "subId": "S328039106",
      "displayName": "Roseate Spoonbill",
      "markerColor": "#FF69B4"
    },
    {
      "speciesCode": "rosspo1",
      "comName": "Roseate Spoonbill",
      "sciName": "Platalea ajaja",
      "locId": "L823147",
      "locName": "J. N. Ding Darling NWR--Wildlife Drive",
      "obsDt": "2026-04-26 09:50",
      "howMany": 1,
      "lat": 26.4540529,
      "lng": -82.1155071,
      "obsValid": true,
      "obsReviewed": false,
      "locationPrivate": false,
      "subId": "S327875968",
      "displayName": "Roseate Spoonbill",
      "markerColor": "#FF69B4"
    },
    {
      "speciesCode": "rosspo1",
      "comName": "Roseate Spoonbill",
      "sciName": "Platalea ajaja",
      "locId": "L1438140",
      "locName": "Rotary Park Environmental Center",
      "obsDt": "2026-04-26 09:15",
      "howMany": 1,
      "lat": 26.5467025,
      "lng": -81.9806344,
      "obsValid": true,
      "obsReviewed": false,
      "locationPrivate": false,
      "subId": "S327805602",
      "displayName": "Roseate Spoonbill",
      "markerColor": "#FF69B4"
    },
    {
      "speciesCode": "rosspo1",
      "comName": "Roseate Spoonbill",
      "sciName": "Platalea ajaja",
      "locId": "L127397",
      "locName": "J. N. Ding Darling NWR (please consider using a more precise location)",
      "obsDt": "2026-04-26 08:38",
      "howMany": 3,
      "lat": 26.4476747,
      "lng": -82.1111298,
      "obsValid": true,
      "obsReviewed": false,
      "locationPrivate": false,
      "subId": "S327833881",
      "displayName": "Roseate Spoonbill",
      "markerColor": "#FF69B4"
    },
    {
      "speciesCode": "rosspo1",
      "comName": "Roseate Spoonbill",
      "sciName": "Platalea ajaja",
      "locId": "L301036",
      "locName": "San Carlos Bay/Bunche Beach Preserve",
      "obsDt": "2026-04-26 08:12",
      "howMany": 1,
      "lat": 26.476174,
      "lng": -81.9673795,
      "obsValid": true,
      "obsReviewed": false,
      "locationPrivate": false,
      "subId": "S327711002",
      "displayName": "Roseate Spoonbill",
      "markerColor": "#FF69B4"
    },
    {
      "speciesCode": "rosspo1",
      "comName": "Roseate Spoonbill",
      "sciName": "Platalea ajaja",
      "locId": "L63948456",
      "locName": "Pelican Bay Blvd, Naples US-FL 26.24695, -81.80874",
      "obsDt": "2026-04-25 19:55",
      "howMany": 1,
      "lat": 26.246951,
      "lng": -81.80874,
      "obsValid": true,
      "obsReviewed": false,
      "locationPrivate": true,
      "subId": "S327436851",
      "displayName": "Roseate Spoonbill",
      "markerColor": "#FF69B4"
    },
    {
      "speciesCode": "rosspo1",
      "comName": "Roseate Spoonbill",
      "sciName": "Platalea ajaja",
      "locId": "L63885019",
      "locName": "J. N. Ding Darling National Wildlife Refuge, Sanibel US-FL 26.45221, -82.11299",
      "obsDt": "2026-04-25 12:17",
      "howMany": 1,
      "lat": 26.452213,
      "lng": -82.112994,
      "obsValid": true,
      "obsReviewed": false,
      "locationPrivate": true,
      "subId": "S327205617",
      "displayName": "Roseate Spoonbill",
      "markerColor": "#FF69B4"
    },
    {
      "speciesCode": "rosspo1",
      "comName": "Roseate Spoonbill",
      "sciName": "Platalea ajaja",
      "locId": "L63874733",
      "locName": "8455 Lagoon Rd, Fort Myers Beach US-FL 26.40665, -81.88659",
      "obsDt": "2026-04-25 09:07",
      "howMany": 1,
      "lat": 26.406652,
      "lng": -81.886586,
      "obsValid": true,
      "obsReviewed": false,
      "locationPrivate": true,
      "subId": "S327098205",
      "displayName": "Roseate Spoonbill",
      "markerColor": "#FF69B4"
    },
    {
      "speciesCode": "rosspo1",
      "comName": "Roseate Spoonbill",
      "sciName": "Platalea ajaja",
      "locId": "L63857288",
      "locName": "1 Wildlife Drive, Sanibel, Florida, US (26.45, -82.113)",
      "obsDt": "2026-04-25 07:04",
      "howMany": 6,
      "lat": 26.4501013,
      "lng": -82.1131943,
      "obsValid": true,
      "obsReviewed": false,
      "locationPrivate": true,
      "subId": "S327006717",
      "displayName": "Roseate Spoonbill",
      "markerColor": "#FF69B4"
    },
    {
      "speciesCode": "limpki",
      "comName": "Limpkin",
      "sciName": "Aramus guarauna",
      "locId": "L830108",
      "locName": "Harns Marsh",
      "obsDt": "2026-04-26 15:01",
      "howMany": 2,
      "lat": 26.6496729,
      "lng": -81.6869336,
      "obsValid": true,
      "obsReviewed": false,
      "locationPrivate": false,
      "subId": "S328084029",
      "displayName": "Limpkin",
      "markerColor": "#D2691E"
    },
    {
      "speciesCode": "limpki",
      "comName": "Limpkin",
      "sciName": "Aramus guarauna",
      "locId": "L797480",
      "locName": "Fred W. Coyle Freedom Park",
      "obsDt": "2026-04-26 12:30",
      "howMany": 1,
      "lat": 26.1745813,
      "lng": -81.7883635,
      "obsValid": true,
      "obsReviewed": false,
      "locationPrivate": false,
      "subId": "S328064024",
      "displayName": "Limpkin",
      "markerColor": "#D2691E"
    },
    {
      "speciesCode": "limpki",
      "comName": "Limpkin",
      "sciName": "Aramus guarauna",
      "locId": "L127407",
      "locName": "Audubon Corkscrew Swamp Sanctuary",
      "obsDt": "2026-04-26 09:11",
      "howMany": 1,
      "lat": 26.375442,
      "lng": -81.6040206,
      "obsValid": true,
      "obsReviewed": false,
      "locationPrivate": false,
      "subId": "S327892382",
      "displayName": "Limpkin",
      "markerColor": "#D2691E"
    },
    {
      "speciesCode": "limpki",
      "comName": "Limpkin",
      "sciName": "Aramus guarauna",
      "locId": "L631290",
      "locName": "West Marsh Preserve",
      "obsDt": "2026-04-25 16:15",
      "howMany": 3,
      "lat": 26.6475354,
      "lng": -81.7027473,
      "obsValid": true,
      "obsReviewed": false,
      "locationPrivate": false,
      "subId": "S327351437",
      "displayName": "Limpkin",
      "markerColor": "#D2691E"
    },
    {
      "speciesCode": "limpki",
      "comName": "Limpkin",
      "sciName": "Aramus guarauna",
      "locId": "L1556487",
      "locName": "Billy Creek Preserve",
      "obsDt": "2026-04-25 10:30",
      "howMany": 1,
      "lat": 26.6619555,
      "lng": -81.8234558,
      "obsValid": true,
      "obsReviewed": false,
      "locationPrivate": false,
      "subId": "S327139977",
      "displayName": "Limpkin",
      "markerColor": "#D2691E"
    },
    {
      "speciesCode": "limpki",
      "comName": "Limpkin",
      "sciName": "Aramus guarauna",
      "locId": "L424819",
      "locName": "Six Mile Cypress Slough Preserve",
      "obsDt": "2026-04-25 09:59",
      "howMany": 1,
      "lat": 26.5716209,
      "lng": -81.8258929,
      "obsValid": true,
      "obsReviewed": false,
      "locationPrivate": false,
      "subId": "S327190180",
      "displayName": "Limpkin",
      "markerColor": "#D2691E"
    },
    {
      "speciesCode": "limpki",
      "comName": "Limpkin",
      "sciName": "Aramus guarauna",
      "locId": "L63802904",
      "locName": "Commons Pool",
      "obsDt": "2026-04-24 19:06",
      "howMany": 1,
      "lat": 26.584302,
      "lng": -81.750201,
      "obsValid": true,
      "obsReviewed": false,
      "locationPrivate": true,
      "subId": "S326746068",
      "displayName": "Limpkin",
      "markerColor": "#D2691E"
    }
  ]
}