{
  "lastUpdated": "2026-04-25T18:55:48Z",
  "centerLat": 26.4317,
  "centerLng": -81.8187,
  "distKm": 32,
  "backDays": 3,
  "observations": [
    {
      "speciesCode": "burowl",
      "comName": "Burrowing Owl",
      "sciName": "Athene cunicularia",
      "locId": "L631290",
      "locName": "West Marsh Preserve",
      "obsDt": "2026-04-25 09:53",
      "howMany": 1,
      "lat": 26.6475354,
      "lng": -81.7027473,
      "obsValid": true,
      "obsReviewed": false,
      "locationPrivate": false,
      "subId": "S327074800",
      "displayName": "Burrowing Owl",
      "markerColor": "#8B4513"
    },
    {
      "speciesCode": "burowl",
      "comName": "Burrowing Owl",
      "sciName": "Athene cunicularia",
      "locId": "L63803417",
      "locName": "Saratoga Lake Park, Cape Coral US-FL (26.6433,-81.9705)",
      "obsDt": "2026-04-24 07:00",
      "howMany": 3,
      "lat": 26.643281,
      "lng": -81.970508,
      "obsValid": true,
      "obsReviewed": false,
      "locationPrivate": true,
      "subId": "S326748551",
      "displayName": "Burrowing Owl",
      "markerColor": "#8B4513"
    },
    {
      "speciesCode": "burowl",
      "comName": "Burrowing Owl",
      "sciName": "Athene cunicularia",
      "locId": "L63686817",
      "locName": "31 Chiquita Blvd N, Cape Coral US-FL (26.6536,-82.0068)",
      "obsDt": "2026-04-23 11:55",
      "howMany": 1,
      "lat": 26.653612,
      "lng": -82.006828,
      "obsValid": true,
      "obsReviewed": false,
      "locationPrivate": true,
      "subId": "S326136151",
      "displayName": "Burrowing Owl",
      "markerColor": "#8B4513"
    },
    {
      "speciesCode": "burowl",
      "comName": "Burrowing Owl",
      "sciName": "Athene cunicularia",
      "locId": "L886942",
      "locName": "Pelican Blvd. Baseball Fields",
      "obsDt": "2026-04-23 11:50",
      "howMany": 6,
      "lat": 26.5747491,
      "lng": -81.9834566,
      "obsValid": true,
      "obsReviewed": false,
      "locationPrivate": false,
      "subId": "S326019973",
      "displayName": "Burrowing Owl",
      "markerColor": "#8B4513"
    },
    {
      "speciesCode": "rosspo1",
      "comName": "Roseate Spoonbill",
      "sciName": "Platalea ajaja",
      "locId": "L63885019",
      "locName": "J. N. Ding Darling National Wildlife Refuge, Sanibel US-FL 26.45221, -82.11299",
      "obsDt": "2026-04-25 12:17",
      "howMany": 1,
      "lat": 26.452213,
      "lng": -82.112994,
      "obsValid": true,
      "obsReviewed": false,
      "locationPrivate": true,
      "subId": "S327205617",
      "displayName": "Roseate Spoonbill",
      "markerColor": "#FF69B4"
    },
    {
      "speciesCode": "rosspo1",
      "comName": "Roseate Spoonbill",
      "sciName": "Platalea ajaja",
      "locId": "L6595361",
      "locName": "Bailey Homestead Wetlands Preserve",
      "obsDt": "2026-04-25 09:30",
      "howMany": 3,
      "lat": 26.4447115,
      "lng": -82.0491171,
      "obsValid": true,
      "obsReviewed": false,
      "locationPrivate": false,
      "subId": "S327103174",
      "displayName": "Roseate Spoonbill",
      "markerColor": "#FF69B4"
    },
    {
      "speciesCode": "rosspo1",
      "comName": "Roseate Spoonbill",
      "sciName": "Platalea ajaja",
      "locId": "L63874733",
      "locName": "8455 Lagoon Rd, Fort Myers Beach US-FL 26.40665, -81.88659",
      "obsDt": "2026-04-25 09:07",
      "howMany": 1,
      "lat": 26.406652,
      "lng": -81.886586,
      "obsValid": true,
      "obsReviewed": false,
      "locationPrivate": true,
      "subId": "S327098205",
      "displayName": "Roseate Spoonbill",
      "markerColor": "#FF69B4"
    },
    {
      "speciesCode": "rosspo1",
      "comName": "Roseate Spoonbill",
      "sciName": "Platalea ajaja",
      "locId": "L127399",
      "locName": "J. N. Ding Darling NWR--Bailey Tract",
      "obsDt": "2026-04-25 07:37",
      "howMany": 1,
      "lat": 26.4276,
      "lng": -82.0819,
      "obsValid": true,
      "obsReviewed": false,
      "locationPrivate": false,
      "subId": "S327031816",
      "displayName": "Roseate Spoonbill",
      "markerColor": "#FF69B4"
    },
    {
      "speciesCode": "rosspo1",
      "comName": "Roseate Spoonbill",
      "sciName": "Platalea ajaja",
      "locId": "L63857288",
      "locName": "1 Wildlife Drive, Sanibel, Florida, US (26.45, -82.113)",
      "obsDt": "2026-04-25 07:04",
      "howMany": 6,
      "lat": 26.4501013,
      "lng": -82.1131943,
      "obsValid": true,
      "obsReviewed": false,
      "locationPrivate": true,
      "subId": "S327006717",
      "displayName": "Roseate Spoonbill",
      "markerColor": "#FF69B4"
    },
    {
      "speciesCode": "rosspo1",
      "comName": "Roseate Spoonbill",
      "sciName": "Platalea ajaja",
      "locId": "L28666002",
      "locName": "Corkscrew Back Country (No Public Access)",
      "obsDt": "2026-04-24 08:42",
      "howMany": 8,
      "lat": 26.3755326,
      "lng": -81.6036685,
      "obsValid": true,
      "obsReviewed": false,
      "locationPrivate": true,
      "subId": "S326520378",
      "displayName": "Roseate Spoonbill",
      "markerColor": "#FF69B4"
    },
    {
      "speciesCode": "rosspo1",
      "comName": "Roseate Spoonbill",
      "sciName": "Platalea ajaja",
      "locId": "L823147",
      "locName": "J. N. Ding Darling NWR--Wildlife Drive",
      "obsDt": "2026-04-23 16:35",
      "howMany": 3,
      "lat": 26.4540529,
      "lng": -82.1155071,
      "obsValid": true,
      "obsReviewed": false,
      "locationPrivate": false,
      "subId": "S326195900",
      "displayName": "Roseate Spoonbill",
      "markerColor": "#FF69B4"
    },
    {
      "speciesCode": "rosspo1",
      "comName": "Roseate Spoonbill",
      "sciName": "Platalea ajaja",
      "locId": "L63640012",
      "locName": "Naples, Florida, US (26.405, -81.584)",
      "obsDt": "2026-04-23 07:38",
      "howMany": 3,
      "lat": 26.4045717,
      "lng": -81.5837467,
      "obsValid": true,
      "obsReviewed": false,
      "locationPrivate": true,
      "subId": "S325887521",
      "displayName": "Roseate Spoonbill",
      "markerColor": "#FF69B4"
    },
    {
      "speciesCode": "limpki",
      "comName": "Limpkin",
      "sciName": "Aramus guarauna",
      "locId": "L1556487",
      "locName": "Billy Creek Preserve",
      "obsDt": "2026-04-25 10:30",
      "howMany": 1,
      "lat": 26.6619555,
      "lng": -81.8234558,
      "obsValid": true,
      "obsReviewed": false,
      "locationPrivate": false,
      "subId": "S327139977",
      "displayName": "Limpkin",
      "markerColor": "#D2691E"
    },
    {
      "speciesCode": "limpki",
      "comName": "Limpkin",
      "sciName": "Aramus guarauna",
      "locId": "L424819",
      "locName": "Six Mile Cypress Slough Preserve",
      "obsDt": "2026-04-25 09:59",
      "howMany": 1,
      "lat": 26.5716209,
      "lng": -81.8258929,
      "obsValid": true,
      "obsReviewed": false,
      "locationPrivate": false,
      "subId": "S327190180",
      "displayName": "Limpkin",
      "markerColor": "#D2691E"
    },
    {
      "speciesCode": "limpki",
      "comName": "Limpkin",
      "sciName": "Aramus guarauna",
      "locId": "L631290",
      "locName": "West Marsh Preserve",
      "obsDt": "2026-04-25 09:53",
      "howMany": 2,
      "lat": 26.6475354,
      "lng": -81.7027473,
      "obsValid": true,
      "obsReviewed": false,
      "locationPrivate": false,
      "subId": "S327074800",
      "displayName": "Limpkin",
      "markerColor": "#D2691E"
    },
    {
      "speciesCode": "limpki",
      "comName": "Limpkin",
      "sciName": "Aramus guarauna",
      "locId": "L830108",
      "locName": "Harns Marsh",
      "obsDt": "2026-04-25 08:17",
      "howMany": 3,
      "lat": 26.6496729,
      "lng": -81.6869336,
      "obsValid": true,
      "obsReviewed": false,
      "locationPrivate": false,
      "subId": "S327051850",
      "displayName": "Limpkin",
      "markerColor": "#D2691E"
    },
    {
      "speciesCode": "limpki",
      "comName": "Limpkin",
      "sciName": "Aramus guarauna",
      "locId": "L63802904",
      "locName": "Commons Pool",
      "obsDt": "2026-04-24 19:06",
      "howMany": 1,
      "lat": 26.584302,
      "lng": -81.750201,
      "obsValid": true,
      "obsReviewed": false,
      "locationPrivate": true,
      "subId": "S326746068",
      "displayName": "Limpkin",
      "markerColor": "#D2691E"
    },
    {
      "speciesCode": "limpki",
      "comName": "Limpkin",
      "sciName": "Aramus guarauna",
      "locId": "L28666002",
      "locName": "Corkscrew Back Country (No Public Access)",
      "obsDt": "2026-04-24 08:42",
      "howMany": 3,
      "lat": 26.3755326,
      "lng": -81.6036685,
      "obsValid": true,
      "obsReviewed": false,
      "locationPrivate": true,
      "subId": "S326520378",
      "displayName": "Limpkin",
      "markerColor": "#D2691E"
    },
    {
      "speciesCode": "limpki",
      "comName": "Limpkin",
      "sciName": "Aramus guarauna",
      "locId": "L9067643",
      "locName": "Sunshine Boulevard North",
      "obsDt": "2026-04-24 07:05",
      "howMany": 5,
      "lat": 26.631066,
      "lng": -81.6864361,
      "obsValid": true,
      "obsReviewed": false,
      "locationPrivate": false,
      "subId": "S326364772",
      "displayName": "Limpkin",
      "markerColor": "#D2691E"
    },
    {
      "speciesCode": "limpki",
      "comName": "Limpkin",
      "sciName": "Aramus guarauna",
      "locId": "L4138659",
      "locName": "IslandWalk (access by permission only)",
      "obsDt": "2026-04-23 09:21",
      "howMany": 10,
      "lat": 26.2483903,
      "lng": -81.7121029,
      "obsValid": true,
      "obsReviewed": false,
      "locationPrivate": false,
      "subId": "S326013290",
      "displayName": "Limpkin",
      "markerColor": "#D2691E"
    },
    {
      "speciesCode": "limpki",
      "comName": "Limpkin",
      "sciName": "Aramus guarauna",
      "locId": "L127407",
      "locName": "Audubon Corkscrew Swamp Sanctuary",
      "obsDt": "2026-04-23 08:41",
      "howMany": 1,
      "lat": 26.375442,
      "lng": -81.6040206,
      "obsValid": true,
      "obsReviewed": false,
      "locationPrivate": false,
      "subId": "S326033456",
      "displayName": "Limpkin",
      "markerColor": "#D2691E"
    },
    {
      "speciesCode": "limpki",
      "comName": "Limpkin",
      "sciName": "Aramus guarauna",
      "locId": "L63640012",
      "locName": "Naples, Florida, US (26.405, -81.584)",
      "obsDt": "2026-04-23 07:38",
      "howMany": 4,
      "lat": 26.4045717,
      "lng": -81.5837467,
      "obsValid": true,
      "obsReviewed": false,
      "locationPrivate": true,
      "subId": "S325887521",
      "displayName": "Limpkin",
      "markerColor": "#D2691E"
    }
  ]
}