{
  "lastUpdated": "2026-04-30T19:24:54Z",
  "centerLat": 26.4317,
  "centerLng": -81.8187,
  "distKm": 32,
  "backDays": 3,
  "observations": [
    {
      "speciesCode": "burowl",
      "comName": "Burrowing Owl",
      "sciName": "Athene cunicularia",
      "locId": "L886942",
      "locName": "Pelican Blvd. Baseball Fields",
      "obsDt": "2026-04-30 12:35",
      "howMany": 5,
      "lat": 26.5747491,
      "lng": -81.9834566,
      "obsValid": true,
      "obsReviewed": false,
      "locationPrivate": false,
      "subId": "S329936646",
      "displayName": "Burrowing Owl",
      "markerColor": "#8B4513"
    },
    {
      "speciesCode": "burowl",
      "comName": "Burrowing Owl",
      "sciName": "Athene cunicularia",
      "locId": "L1340123",
      "locName": "Cape Coral Public Library",
      "obsDt": "2026-04-30 11:00",
      "howMany": 3,
      "lat": 26.5799318,
      "lng": -81.9950776,
      "obsValid": true,
      "obsReviewed": false,
      "locationPrivate": false,
      "subId": "S329892081",
      "displayName": "Burrowing Owl",
      "markerColor": "#8B4513"
    },
    {
      "speciesCode": "burowl",
      "comName": "Burrowing Owl",
      "sciName": "Athene cunicularia",
      "locId": "L9519972",
      "locName": "SW 43rd Ter, Cape Coral US-FL (26.5722,-81.9907)",
      "obsDt": "2026-04-29 11:40",
      "howMany": 2,
      "lat": 26.572196,
      "lng": -81.990698,
      "obsValid": true,
      "obsReviewed": false,
      "locationPrivate": true,
      "subId": "S329441655",
      "displayName": "Burrowing Owl",
      "markerColor": "#8B4513"
    },
    {
      "speciesCode": "rosspo1",
      "comName": "Roseate Spoonbill",
      "sciName": "Platalea ajaja",
      "locId": "L127407",
      "locName": "Audubon Corkscrew Swamp Sanctuary",
      "obsDt": "2026-04-30 08:55",
      "howMany": 1,
      "lat": 26.375442,
      "lng": -81.6040206,
      "obsValid": true,
      "obsReviewed": false,
      "locationPrivate": false,
      "subId": "S329885137",
      "displayName": "Roseate Spoonbill",
      "markerColor": "#FF69B4"
    },
    {
      "speciesCode": "rosspo1",
      "comName": "Roseate Spoonbill",
      "sciName": "Platalea ajaja",
      "locId": "L160668",
      "locName": "Lovers Key SP",
      "obsDt": "2026-04-30 08:29",
      "howMany": 1,
      "lat": 26.3911316,
      "lng": -81.8713188,
      "obsValid": true,
      "obsReviewed": false,
      "locationPrivate": false,
      "subId": "S329852014",
      "displayName": "Roseate Spoonbill",
      "markerColor": "#FF69B4"
    },
    {
      "speciesCode": "rosspo1",
      "comName": "Roseate Spoonbill",
      "sciName": "Platalea ajaja",
      "locId": "L1142803",
      "locName": "Little Estero Island Critical Wildlife Area",
      "obsDt": "2026-04-30 08:25",
      "howMany": 14,
      "lat": 26.4130015,
      "lng": -81.9034436,
      "obsValid": true,
      "obsReviewed": false,
      "locationPrivate": false,
      "subId": "S329938047",
      "displayName": "Roseate Spoonbill",
      "markerColor": "#FF69B4"
    },
    {
      "speciesCode": "rosspo1",
      "comName": "Roseate Spoonbill",
      "sciName": "Platalea ajaja",
      "locId": "L823147",
      "locName": "J. N. Ding Darling NWR--Wildlife Drive",
      "obsDt": "2026-04-30 08:23",
      "howMany": 3,
      "lat": 26.4540529,
      "lng": -82.1155071,
      "obsValid": true,
      "obsReviewed": false,
      "locationPrivate": false,
      "subId": "S329826530",
      "displayName": "Roseate Spoonbill",
      "markerColor": "#FF69B4"
    },
    {
      "speciesCode": "rosspo1",
      "comName": "Roseate Spoonbill",
      "sciName": "Platalea ajaja",
      "locId": "L64408689",
      "locName": "J. N. Ding Darling National Wildlife Refuge, Sanibel US-FL 26.46427, -82.13363",
      "obsDt": "2026-04-30 07:49",
      "howMany": 14,
      "lat": 26.464274,
      "lng": -82.133627,
      "obsValid": true,
      "obsReviewed": false,
      "locationPrivate": true,
      "subId": "S329811765",
      "displayName": "Roseate Spoonbill",
      "markerColor": "#FF69B4"
    },
    {
      "speciesCode": "rosspo1",
      "comName": "Roseate Spoonbill",
      "sciName": "Platalea ajaja",
      "locId": "L301036",
      "locName": "San Carlos Bay/Bunche Beach Preserve",
      "obsDt": "2026-04-29 18:39",
      "howMany": 2,
      "lat": 26.476174,
      "lng": -81.9673795,
      "obsValid": true,
      "obsReviewed": false,
      "locationPrivate": false,
      "subId": "S329640282",
      "displayName": "Roseate Spoonbill",
      "markerColor": "#FF69B4"
    },
    {
      "speciesCode": "rosspo1",
      "comName": "Roseate Spoonbill",
      "sciName": "Platalea ajaja",
      "locId": "L696144",
      "locName": "J. N. Ding Darling NWR--Observation Tower",
      "obsDt": "2026-04-29 07:26",
      "lat": 26.4637503,
      "lng": -82.1336322,
      "obsValid": true,
      "obsReviewed": false,
      "locationPrivate": false,
      "subId": "S329390144",
      "displayName": "Roseate Spoonbill",
      "markerColor": "#FF69B4"
    },
    {
      "speciesCode": "rosspo1",
      "comName": "Roseate Spoonbill",
      "sciName": "Platalea ajaja",
      "locId": "L1070297",
      "locName": "Little Estero Lagoon",
      "obsDt": "2026-04-28 08:20",
      "howMany": 13,
      "lat": 26.4150482,
      "lng": -81.9031191,
      "obsValid": true,
      "obsReviewed": false,
      "locationPrivate": false,
      "subId": "S329022727",
      "displayName": "Roseate Spoonbill",
      "markerColor": "#FF69B4"
    },
    {
      "speciesCode": "rosspo1",
      "comName": "Roseate Spoonbill",
      "sciName": "Platalea ajaja",
      "locId": "L64237301",
      "locName": "J. N. Ding Darling National Wildlife Refuge, Sanibel US-FL 26.44831, -82.11340",
      "obsDt": "2026-04-28 07:41",
      "howMany": 4,
      "lat": 26.448313,
      "lng": -82.113402,
      "obsValid": true,
      "obsReviewed": false,
      "locationPrivate": true,
      "subId": "S328909008",
      "displayName": "Roseate Spoonbill",
      "markerColor": "#FF69B4"
    },
    {
      "speciesCode": "rosspo1",
      "comName": "Roseate Spoonbill",
      "sciName": "Platalea ajaja",
      "locId": "L830108",
      "locName": "Harns Marsh",
      "obsDt": "2026-04-28 07:22",
      "howMany": 1,
      "lat": 26.6496729,
      "lng": -81.6869336,
      "obsValid": true,
      "obsReviewed": false,
      "locationPrivate": false,
      "subId": "S328981082",
      "displayName": "Roseate Spoonbill",
      "markerColor": "#FF69B4"
    },
    {
      "speciesCode": "rosspo1",
      "comName": "Roseate Spoonbill",
      "sciName": "Platalea ajaja",
      "locId": "L10637588",
      "locName": "Flint Trail Stand--Orange Trailhead",
      "obsDt": "2026-04-28 06:39",
      "howMany": 1,
      "lat": 26.3325234,
      "lng": -81.6809881,
      "obsValid": true,
      "obsReviewed": false,
      "locationPrivate": false,
      "subId": "S329042657",
      "displayName": "Roseate Spoonbill",
      "markerColor": "#FF69B4"
    },
    {
      "speciesCode": "rosspo1",
      "comName": "Roseate Spoonbill",
      "sciName": "Platalea ajaja",
      "locId": "L6595361",
      "locName": "Bailey Homestead Wetlands Preserve",
      "obsDt": "2026-04-27 17:45",
      "howMany": 1,
      "lat": 26.4447115,
      "lng": -82.0491171,
      "obsValid": true,
      "obsReviewed": false,
      "locationPrivate": false,
      "subId": "S328744571",
      "displayName": "Roseate Spoonbill",
      "markerColor": "#FF69B4"
    },
    {
      "speciesCode": "limpki",
      "comName": "Limpkin",
      "sciName": "Aramus guarauna",
      "locId": "L127407",
      "locName": "Audubon Corkscrew Swamp Sanctuary",
      "obsDt": "2026-04-30 08:18",
      "howMany": 1,
      "lat": 26.375442,
      "lng": -81.6040206,
      "obsValid": true,
      "obsReviewed": false,
      "locationPrivate": false,
      "subId": "S329908755",
      "displayName": "Limpkin",
      "markerColor": "#D2691E"
    },
    {
      "speciesCode": "limpki",
      "comName": "Limpkin",
      "sciName": "Aramus guarauna",
      "locId": "L64360157",
      "locName": "Six Mile Cypress Slough Preserve Park, Fort Myers US-FL 26.57597, -81.82267",
      "obsDt": "2026-04-29 16:19",
      "howMany": 1,
      "lat": 26.575966,
      "lng": -81.822674,
      "obsValid": true,
      "obsReviewed": false,
      "locationPrivate": true,
      "subId": "S329568241",
      "displayName": "Limpkin",
      "markerColor": "#D2691E"
    },
    {
      "speciesCode": "limpki",
      "comName": "Limpkin",
      "sciName": "Aramus guarauna",
      "locId": "L64278649",
      "locName": "Vanderbilt Country Club, Naples US-FL 26.25107, -81.67796",
      "obsDt": "2026-04-29 12:21",
      "howMany": 1,
      "lat": 26.251074,
      "lng": -81.677961,
      "obsValid": true,
      "obsReviewed": false,
      "locationPrivate": true,
      "subId": "S329488727",
      "displayName": "Limpkin",
      "markerColor": "#D2691E"
    },
    {
      "speciesCode": "limpki",
      "comName": "Limpkin",
      "sciName": "Aramus guarauna",
      "locId": "L17481267",
      "locName": "Condo pond",
      "obsDt": "2026-04-29 07:39",
      "howMany": 1,
      "lat": 26.565445,
      "lng": -81.756927,
      "obsValid": true,
      "obsReviewed": false,
      "locationPrivate": true,
      "subId": "S329775160",
      "displayName": "Limpkin",
      "markerColor": "#D2691E"
    },
    {
      "speciesCode": "limpki",
      "comName": "Limpkin",
      "sciName": "Aramus guarauna",
      "locId": "L424819",
      "locName": "Six Mile Cypress Slough Preserve",
      "obsDt": "2026-04-29 06:28",
      "howMany": 2,
      "lat": 26.5716209,
      "lng": -81.8258929,
      "obsValid": true,
      "obsReviewed": false,
      "locationPrivate": false,
      "subId": "S329589830",
      "displayName": "Limpkin",
      "markerColor": "#D2691E"
    },
    {
      "speciesCode": "limpki",
      "comName": "Limpkin",
      "sciName": "Aramus guarauna",
      "locId": "L10487542",
      "locName": "US-41--Walmart",
      "obsDt": "2026-04-28 14:50",
      "howMany": 1,
      "lat": 26.526556,
      "lng": -81.8702003,
      "obsValid": true,
      "obsReviewed": false,
      "locationPrivate": false,
      "subId": "S329070006",
      "displayName": "Limpkin",
      "markerColor": "#D2691E"
    },
    {
      "speciesCode": "limpki",
      "comName": "Limpkin",
      "sciName": "Aramus guarauna",
      "locId": "L830108",
      "locName": "Harns Marsh",
      "obsDt": "2026-04-28 10:39",
      "howMany": 3,
      "lat": 26.6496729,
      "lng": -81.6869336,
      "obsValid": true,
      "obsReviewed": false,
      "locationPrivate": false,
      "subId": "S328978319",
      "displayName": "Limpkin",
      "markerColor": "#D2691E"
    },
    {
      "speciesCode": "limpki",
      "comName": "Limpkin",
      "sciName": "Aramus guarauna",
      "locId": "L4138659",
      "locName": "IslandWalk (access by permission only)",
      "obsDt": "2026-04-28 09:17",
      "howMany": 7,
      "lat": 26.2483903,
      "lng": -81.7121029,
      "obsValid": true,
      "obsReviewed": false,
      "locationPrivate": false,
      "subId": "S328973064",
      "displayName": "Limpkin",
      "markerColor": "#D2691E"
    },
    {
      "speciesCode": "limpki",
      "comName": "Limpkin",
      "sciName": "Aramus guarauna",
      "locId": "L63802904",
      "locName": "Commons Pool",
      "obsDt": "2026-04-27 19:01",
      "howMany": 1,
      "lat": 26.584302,
      "lng": -81.750201,
      "obsValid": true,
      "obsReviewed": false,
      "locationPrivate": true,
      "subId": "S328721684",
      "displayName": "Limpkin",
      "markerColor": "#D2691E"
    },
    {
      "speciesCode": "limpki",
      "comName": "Limpkin",
      "sciName": "Aramus guarauna",
      "locId": "L4145387",
      "locName": "Del Prado Linear Park",
      "obsDt": "2026-04-27 15:36",
      "howMany": 2,
      "lat": 26.675801,
      "lng": -81.9420862,
      "obsValid": true,
      "obsReviewed": false,
      "locationPrivate": false,
      "subId": "S328643436",
      "displayName": "Limpkin",
      "markerColor": "#D2691E"
    }
  ]
}