{
  "lastUpdated": "2026-04-19T09:53:28Z",
  "centerLat": 26.4317,
  "centerLng": -81.8187,
  "distKm": 32,
  "backDays": 3,
  "observations": [
    {
      "speciesCode": "burowl",
      "comName": "Burrowing Owl",
      "sciName": "Athene cunicularia",
      "locId": "L886942",
      "locName": "Pelican Blvd. Baseball Fields",
      "obsDt": "2026-04-18 15:44",
      "howMany": 8,
      "lat": 26.5747491,
      "lng": -81.9834566,
      "obsValid": true,
      "obsReviewed": false,
      "locationPrivate": false,
      "subId": "S323843652",
      "displayName": "Burrowing Owl",
      "markerColor": "#8B4513"
    },
    {
      "speciesCode": "burowl",
      "comName": "Burrowing Owl",
      "sciName": "Athene cunicularia",
      "locId": "L5740111",
      "locName": "Aircraft Observation Marsh",
      "obsDt": "2026-04-18 12:13",
      "howMany": 1,
      "lat": 26.532121,
      "lng": -81.766767,
      "obsValid": true,
      "obsReviewed": false,
      "locationPrivate": false,
      "subId": "S323609125",
      "displayName": "Burrowing Owl",
      "markerColor": "#8B4513"
    },
    {
      "speciesCode": "burowl",
      "comName": "Burrowing Owl",
      "sciName": "Athene cunicularia",
      "locId": "L631290",
      "locName": "West Marsh Preserve",
      "obsDt": "2026-04-18 11:00",
      "howMany": 2,
      "lat": 26.6475354,
      "lng": -81.7027473,
      "obsValid": true,
      "obsReviewed": false,
      "locationPrivate": false,
      "subId": "S323585499",
      "displayName": "Burrowing Owl",
      "markerColor": "#8B4513"
    },
    {
      "speciesCode": "burowl",
      "comName": "Burrowing Owl",
      "sciName": "Athene cunicularia",
      "locId": "L1340123",
      "locName": "Cape Coral Public Library",
      "obsDt": "2026-04-18 10:25",
      "howMany": 2,
      "lat": 26.5799318,
      "lng": -81.9950776,
      "obsValid": true,
      "obsReviewed": false,
      "locationPrivate": false,
      "subId": "S323534800",
      "displayName": "Burrowing Owl",
      "markerColor": "#8B4513"
    },
    {
      "speciesCode": "burowl",
      "comName": "Burrowing Owl",
      "sciName": "Athene cunicularia",
      "locId": "L57701585",
      "locName": "2723 Archer Parkway East, Cape Coral, Florida, US (26.601, -81.952)\nHome",
      "obsDt": "2026-04-18 10:19",
      "howMany": 9,
      "lat": 26.6009419,
      "lng": -81.9519744,
      "obsValid": true,
      "obsReviewed": false,
      "locationPrivate": true,
      "subId": "S323643326",
      "displayName": "Burrowing Owl",
      "markerColor": "#8B4513"
    },
    {
      "speciesCode": "burowl",
      "comName": "Burrowing Owl",
      "sciName": "Athene cunicularia",
      "locId": "L62935960",
      "locName": "4619 Agualinda Boulevard, Cape Coral, Florida, US (26.565, -82.017)",
      "obsDt": "2026-04-16 07:55",
      "howMany": 1,
      "lat": 26.5653397,
      "lng": -82.0173866,
      "obsValid": true,
      "obsReviewed": false,
      "locationPrivate": true,
      "subId": "S322396031",
      "displayName": "Burrowing Owl",
      "markerColor": "#8B4513"
    },
    {
      "speciesCode": "rosspo1",
      "comName": "Roseate Spoonbill",
      "sciName": "Platalea ajaja",
      "locId": "L1070297",
      "locName": "Little Estero Lagoon",
      "obsDt": "2026-04-18 09:07",
      "howMany": 10,
      "lat": 26.4150482,
      "lng": -81.9031191,
      "obsValid": true,
      "obsReviewed": false,
      "locationPrivate": false,
      "subId": "S323495562",
      "displayName": "Roseate Spoonbill",
      "markerColor": "#FF69B4"
    },
    {
      "speciesCode": "rosspo1",
      "comName": "Roseate Spoonbill",
      "sciName": "Platalea ajaja",
      "locId": "L678986",
      "locName": "Pond Apple Trail",
      "obsDt": "2026-04-18 08:41",
      "howMany": 4,
      "lat": 26.4474057,
      "lng": -82.0401907,
      "obsValid": true,
      "obsReviewed": false,
      "locationPrivate": false,
      "subId": "S323601566",
      "displayName": "Roseate Spoonbill",
      "markerColor": "#FF69B4"
    },
    {
      "speciesCode": "rosspo1",
      "comName": "Roseate Spoonbill",
      "sciName": "Platalea ajaja",
      "locId": "L823147",
      "locName": "J. N. Ding Darling NWR--Wildlife Drive",
      "obsDt": "2026-04-18 07:25",
      "howMany": 10,
      "lat": 26.4540529,
      "lng": -82.1155071,
      "obsValid": true,
      "obsReviewed": false,
      "locationPrivate": false,
      "subId": "S323712789",
      "displayName": "Roseate Spoonbill",
      "markerColor": "#FF69B4"
    },
    {
      "speciesCode": "rosspo1",
      "comName": "Roseate Spoonbill",
      "sciName": "Platalea ajaja",
      "locId": "L301036",
      "locName": "San Carlos Bay/Bunche Beach Preserve",
      "obsDt": "2026-04-18 06:55",
      "howMany": 2,
      "lat": 26.476174,
      "lng": -81.9673795,
      "obsValid": true,
      "obsReviewed": false,
      "locationPrivate": false,
      "subId": "S323552374",
      "displayName": "Roseate Spoonbill",
      "markerColor": "#FF69B4"
    },
    {
      "speciesCode": "rosspo1",
      "comName": "Roseate Spoonbill",
      "sciName": "Platalea ajaja",
      "locId": "L55449050",
      "locName": "Horseshoe",
      "obsDt": "2026-04-17 16:45",
      "howMany": 1,
      "lat": 26.348611,
      "lng": -81.820503,
      "obsValid": true,
      "obsReviewed": false,
      "locationPrivate": true,
      "subId": "S323140695",
      "displayName": "Roseate Spoonbill",
      "markerColor": "#FF69B4"
    },
    {
      "speciesCode": "rosspo1",
      "comName": "Roseate Spoonbill",
      "sciName": "Platalea ajaja",
      "locId": "L6595361",
      "locName": "Bailey Homestead Wetlands Preserve",
      "obsDt": "2026-04-17 14:57",
      "howMany": 4,
      "lat": 26.4447115,
      "lng": -82.0491171,
      "obsValid": true,
      "obsReviewed": false,
      "locationPrivate": false,
      "subId": "S323205022",
      "displayName": "Roseate Spoonbill",
      "markerColor": "#FF69B4"
    },
    {
      "speciesCode": "rosspo1",
      "comName": "Roseate Spoonbill",
      "sciName": "Platalea ajaja",
      "locId": "L160668",
      "locName": "Lovers Key SP",
      "obsDt": "2026-04-17 10:19",
      "howMany": 1,
      "lat": 26.3911316,
      "lng": -81.8713188,
      "obsValid": true,
      "obsReviewed": false,
      "locationPrivate": false,
      "subId": "S322967523",
      "displayName": "Roseate Spoonbill",
      "markerColor": "#FF69B4"
    },
    {
      "speciesCode": "rosspo1",
      "comName": "Roseate Spoonbill",
      "sciName": "Platalea ajaja",
      "locId": "L13063245",
      "locName": "Bay Beach Commons Golf Course",
      "obsDt": "2026-04-17 08:14",
      "howMany": 1,
      "lat": 26.4099212,
      "lng": -81.8929572,
      "obsValid": true,
      "obsReviewed": false,
      "locationPrivate": false,
      "subId": "S322882507",
      "displayName": "Roseate Spoonbill",
      "markerColor": "#FF69B4"
    },
    {
      "speciesCode": "rosspo1",
      "comName": "Roseate Spoonbill",
      "sciName": "Platalea ajaja",
      "locId": "L63029081",
      "locName": "Bailey Tract Trail",
      "obsDt": "2026-04-17 07:59",
      "howMany": 1,
      "lat": 26.429892,
      "lng": -82.088036,
      "obsValid": true,
      "obsReviewed": false,
      "locationPrivate": true,
      "subId": "S322897619",
      "displayName": "Roseate Spoonbill",
      "markerColor": "#FF69B4"
    },
    {
      "speciesCode": "rosspo1",
      "comName": "Roseate Spoonbill",
      "sciName": "Platalea ajaja",
      "locId": "L31132962",
      "locName": "Bonita Bay Rookery (restricted access)",
      "obsDt": "2026-04-16 18:00",
      "howMany": 1,
      "lat": 26.3405255,
      "lng": -81.8226994,
      "obsValid": true,
      "obsReviewed": false,
      "locationPrivate": true,
      "subId": "S322713616",
      "displayName": "Roseate Spoonbill",
      "markerColor": "#FF69B4"
    },
    {
      "speciesCode": "rosspo1",
      "comName": "Roseate Spoonbill",
      "sciName": "Platalea ajaja",
      "locId": "L62994433",
      "locName": "Estero Bay",
      "obsDt": "2026-04-16 17:40",
      "howMany": 3,
      "lat": 26.404241,
      "lng": -81.870223,
      "obsValid": true,
      "obsReviewed": false,
      "locationPrivate": true,
      "subId": "S322706654",
      "displayName": "Roseate Spoonbill",
      "markerColor": "#FF69B4"
    },
    {
      "speciesCode": "rosspo1",
      "comName": "Roseate Spoonbill",
      "sciName": "Platalea ajaja",
      "locId": "L696144",
      "locName": "J. N. Ding Darling NWR--Observation Tower",
      "obsDt": "2026-04-16 14:31",
      "howMany": 1,
      "lat": 26.4637503,
      "lng": -82.1336322,
      "obsValid": true,
      "obsReviewed": false,
      "locationPrivate": false,
      "subId": "S322595569",
      "displayName": "Roseate Spoonbill",
      "markerColor": "#FF69B4"
    },
    {
      "speciesCode": "rosspo1",
      "comName": "Roseate Spoonbill",
      "sciName": "Platalea ajaja",
      "locId": "L830108",
      "locName": "Harns Marsh",
      "obsDt": "2026-04-16 14:12",
      "howMany": 1,
      "lat": 26.6496729,
      "lng": -81.6869336,
      "obsValid": true,
      "obsReviewed": false,
      "locationPrivate": false,
      "subId": "S322585409",
      "displayName": "Roseate Spoonbill",
      "markerColor": "#FF69B4"
    },
    {
      "speciesCode": "rosspo1",
      "comName": "Roseate Spoonbill",
      "sciName": "Platalea ajaja",
      "locId": "L696149",
      "locName": "J. N. Ding Darling NWR--Red Mangrove Overlook",
      "obsDt": "2026-04-16 14:00",
      "howMany": 2,
      "lat": 26.4571842,
      "lng": -82.1200347,
      "obsValid": true,
      "obsReviewed": false,
      "locationPrivate": false,
      "subId": "S322602584",
      "displayName": "Roseate Spoonbill",
      "markerColor": "#FF69B4"
    },
    {
      "speciesCode": "rosspo1",
      "comName": "Roseate Spoonbill",
      "sciName": "Platalea ajaja",
      "locId": "L4402419",
      "locName": "Ding Darling Indigo Trail",
      "obsDt": "2026-04-16 09:44",
      "howMany": 1,
      "lat": 26.4476939,
      "lng": -82.1140158,
      "obsValid": true,
      "obsReviewed": false,
      "locationPrivate": true,
      "subId": "S322456935",
      "displayName": "Roseate Spoonbill",
      "markerColor": "#FF69B4"
    },
    {
      "speciesCode": "limpki",
      "comName": "Limpkin",
      "sciName": "Aramus guarauna",
      "locId": "L55756812",
      "locName": "Spoonbill Lane",
      "obsDt": "2026-04-18 18:08",
      "howMany": 2,
      "lat": 26.207023,
      "lng": -81.770007,
      "obsValid": true,
      "obsReviewed": false,
      "locationPrivate": true,
      "subId": "S323787063",
      "displayName": "Limpkin",
      "markerColor": "#D2691E"
    },
    {
      "speciesCode": "limpki",
      "comName": "Limpkin",
      "sciName": "Aramus guarauna",
      "locId": "L60963303",
      "locName": "Southmont Cove",
      "obsDt": "2026-04-18 17:56",
      "howMany": 1,
      "lat": 26.4855714,
      "lng": -81.9032209,
      "obsValid": true,
      "obsReviewed": false,
      "locationPrivate": true,
      "subId": "S323802856",
      "displayName": "Limpkin",
      "markerColor": "#D2691E"
    },
    {
      "speciesCode": "limpki",
      "comName": "Limpkin",
      "sciName": "Aramus guarauna",
      "locId": "L63202938",
      "locName": "ArrowHead Golf Club, Naples US-FL 26.27087, -81.71213",
      "obsDt": "2026-04-18 16:16",
      "howMany": 4,
      "lat": 26.270867,
      "lng": -81.712135,
      "obsValid": true,
      "obsReviewed": false,
      "locationPrivate": true,
      "subId": "S323740739",
      "displayName": "Limpkin",
      "markerColor": "#D2691E"
    },
    {
      "speciesCode": "limpki",
      "comName": "Limpkin",
      "sciName": "Aramus guarauna",
      "locId": "L39942296",
      "locName": "2305 SE Fifth Terr, Cape Coral US-FL 26.64286, -81.92608",
      "obsDt": "2026-04-18 16:02",
      "howMany": 1,
      "lat": 26.642858,
      "lng": -81.926077,
      "obsValid": true,
      "obsReviewed": false,
      "locationPrivate": true,
      "subId": "S323868951",
      "displayName": "Limpkin",
      "markerColor": "#D2691E"
    },
    {
      "speciesCode": "limpki",
      "comName": "Limpkin",
      "sciName": "Aramus guarauna",
      "locId": "L830108",
      "locName": "Harns Marsh",
      "obsDt": "2026-04-18 13:30",
      "howMany": 1,
      "lat": 26.6496729,
      "lng": -81.6869336,
      "obsValid": true,
      "obsReviewed": false,
      "locationPrivate": false,
      "subId": "S323794085",
      "displayName": "Limpkin",
      "markerColor": "#D2691E"
    },
    {
      "speciesCode": "limpki",
      "comName": "Limpkin",
      "sciName": "Aramus guarauna",
      "locId": "L10487542",
      "locName": "US-41--Walmart",
      "obsDt": "2026-04-18 09:38",
      "howMany": 1,
      "lat": 26.526556,
      "lng": -81.8702003,
      "obsValid": true,
      "obsReviewed": false,
      "locationPrivate": false,
      "subId": "S323553379",
      "displayName": "Limpkin",
      "markerColor": "#D2691E"
    },
    {
      "speciesCode": "limpki",
      "comName": "Limpkin",
      "sciName": "Aramus guarauna",
      "locId": "L4138659",
      "locName": "IslandWalk (access by permission only)",
      "obsDt": "2026-04-18 09:17",
      "howMany": 7,
      "lat": 26.2483903,
      "lng": -81.7121029,
      "obsValid": true,
      "obsReviewed": false,
      "locationPrivate": false,
      "subId": "S323579694",
      "displayName": "Limpkin",
      "markerColor": "#D2691E"
    },
    {
      "speciesCode": "limpki",
      "comName": "Limpkin",
      "sciName": "Aramus guarauna",
      "locId": "L16854171",
      "locName": "Lakes Regional Park",
      "obsDt": "2026-04-18 06:55",
      "howMany": 2,
      "lat": 26.528372,
      "lng": -81.877415,
      "obsValid": true,
      "obsReviewed": false,
      "locationPrivate": true,
      "subId": "S323542141",
      "displayName": "Limpkin",
      "markerColor": "#D2691E"
    },
    {
      "speciesCode": "limpki",
      "comName": "Limpkin",
      "sciName": "Aramus guarauna",
      "locId": "L63078583",
      "locName": "Pine Island Rd near Andalusia",
      "obsDt": "2026-04-17 17:50",
      "howMany": 1,
      "lat": 26.6624874,
      "lng": -81.9510933,
      "obsValid": true,
      "obsReviewed": false,
      "locationPrivate": true,
      "subId": "S323154428",
      "displayName": "Limpkin",
      "markerColor": "#D2691E"
    },
    {
      "speciesCode": "limpki",
      "comName": "Limpkin",
      "sciName": "Aramus guarauna",
      "locId": "L631290",
      "locName": "West Marsh Preserve",
      "obsDt": "2026-04-17 13:57",
      "howMany": 1,
      "lat": 26.6475354,
      "lng": -81.7027473,
      "obsValid": true,
      "obsReviewed": false,
      "locationPrivate": false,
      "subId": "S323079738",
      "displayName": "Limpkin",
      "markerColor": "#D2691E"
    },
    {
      "speciesCode": "limpki",
      "comName": "Limpkin",
      "sciName": "Aramus guarauna",
      "locId": "L127407",
      "locName": "Audubon Corkscrew Swamp Sanctuary",
      "obsDt": "2026-04-17 08:41",
      "howMany": 2,
      "lat": 26.375442,
      "lng": -81.6040206,
      "obsValid": true,
      "obsReviewed": false,
      "locationPrivate": false,
      "subId": "S322978749",
      "displayName": "Limpkin",
      "markerColor": "#D2691E"
    },
    {
      "speciesCode": "limpki",
      "comName": "Limpkin",
      "sciName": "Aramus guarauna",
      "locId": "L16851726",
      "locName": "Robberson home (restricted access)",
      "obsDt": "2026-04-17 06:35",
      "howMany": 1,
      "lat": 26.474212,
      "lng": -81.8287113,
      "obsValid": true,
      "obsReviewed": false,
      "locationPrivate": true,
      "subId": "S322821392",
      "displayName": "Limpkin",
      "markerColor": "#D2691E"
    },
    {
      "speciesCode": "limpki",
      "comName": "Limpkin",
      "sciName": "Aramus guarauna",
      "locId": "L25193163",
      "locName": "Cape Coral, Florida, US (26.603, -81.979)",
      "obsDt": "2026-04-16 22:00",
      "lat": 26.603083,
      "lng": -81.978784,
      "obsValid": true,
      "obsReviewed": false,
      "locationPrivate": true,
      "subId": "S322731262",
      "displayName": "Limpkin",
      "markerColor": "#D2691E"
    },
    {
      "speciesCode": "limpki",
      "comName": "Limpkin",
      "sciName": "Aramus guarauna",
      "locId": "L32036347",
      "locName": "9005 Whimbrel Watch Lane, Naples, Florida, US (26.249, -81.778)",
      "obsDt": "2026-04-16 18:12",
      "howMany": 6,
      "lat": 26.2492245,
      "lng": -81.7775133,
      "obsValid": true,
      "obsReviewed": false,
      "locationPrivate": true,
      "subId": "S322662671",
      "displayName": "Limpkin",
      "markerColor": "#D2691E"
    },
    {
      "speciesCode": "limpki",
      "comName": "Limpkin",
      "sciName": "Aramus guarauna",
      "locId": "L4333809",
      "locName": "Paseo & Penzance",
      "obsDt": "2026-04-16 15:59",
      "howMany": 1,
      "lat": 26.5700812,
      "lng": -81.8134367,
      "obsValid": true,
      "obsReviewed": false,
      "locationPrivate": true,
      "subId": "S322717930",
      "displayName": "Limpkin",
      "markerColor": "#D2691E"
    },
    {
      "speciesCode": "limpki",
      "comName": "Limpkin",
      "sciName": "Aramus guarauna",
      "locId": "L424819",
      "locName": "Six Mile Cypress Slough Preserve",
      "obsDt": "2026-04-16 14:28",
      "howMany": 1,
      "lat": 26.5716209,
      "lng": -81.8258929,
      "obsValid": true,
      "obsReviewed": false,
      "locationPrivate": false,
      "subId": "S322606185",
      "displayName": "Limpkin",
      "markerColor": "#D2691E"
    },
    {
      "speciesCode": "limpki",
      "comName": "Limpkin",
      "sciName": "Aramus guarauna",
      "locId": "L62960172",
      "locName": "2501 Tena Ave N, Lehigh Acres US-FL 26.63536, -81.69184",
      "obsDt": "2026-04-16 12:30",
      "howMany": 1,
      "lat": 26.635361,
      "lng": -81.691843,
      "obsValid": true,
      "obsReviewed": false,
      "locationPrivate": true,
      "subId": "S322531848",
      "displayName": "Limpkin",
      "markerColor": "#D2691E"
    }
  ]
}