{
  "lastUpdated": "2026-04-24T18:55:37Z",
  "centerLat": 26.4317,
  "centerLng": -81.8187,
  "distKm": 32,
  "backDays": 3,
  "observations": [
    {
      "speciesCode": "burowl",
      "comName": "Burrowing Owl",
      "sciName": "Athene cunicularia",
      "locId": "L63686817",
      "locName": "31 Chiquita Blvd N, Cape Coral US-FL (26.6536,-82.0068)",
      "obsDt": "2026-04-23 11:55",
      "howMany": 1,
      "lat": 26.653612,
      "lng": -82.006828,
      "obsValid": true,
      "obsReviewed": false,
      "locationPrivate": true,
      "subId": "S326136151",
      "displayName": "Burrowing Owl",
      "markerColor": "#8B4513"
    },
    {
      "speciesCode": "burowl",
      "comName": "Burrowing Owl",
      "sciName": "Athene cunicularia",
      "locId": "L886942",
      "locName": "Pelican Blvd. Baseball Fields",
      "obsDt": "2026-04-23 11:50",
      "howMany": 6,
      "lat": 26.5747491,
      "lng": -81.9834566,
      "obsValid": true,
      "obsReviewed": false,
      "locationPrivate": false,
      "subId": "S326019973",
      "displayName": "Burrowing Owl",
      "markerColor": "#8B4513"
    },
    {
      "speciesCode": "burowl",
      "comName": "Burrowing Owl",
      "sciName": "Athene cunicularia",
      "locId": "L631290",
      "locName": "West Marsh Preserve",
      "obsDt": "2026-04-22 13:45",
      "howMany": 1,
      "lat": 26.6475354,
      "lng": -81.7027473,
      "obsValid": true,
      "obsReviewed": false,
      "locationPrivate": false,
      "subId": "S325595208",
      "displayName": "Burrowing Owl",
      "markerColor": "#8B4513"
    },
    {
      "speciesCode": "rosspo1",
      "comName": "Roseate Spoonbill",
      "sciName": "Platalea ajaja",
      "locId": "L6595361",
      "locName": "Bailey Homestead Wetlands Preserve",
      "obsDt": "2026-04-24 11:02",
      "howMany": 1,
      "lat": 26.4447115,
      "lng": -82.0491171,
      "obsValid": true,
      "obsReviewed": false,
      "locationPrivate": false,
      "subId": "S326548066",
      "displayName": "Roseate Spoonbill",
      "markerColor": "#FF69B4"
    },
    {
      "speciesCode": "rosspo1",
      "comName": "Roseate Spoonbill",
      "sciName": "Platalea ajaja",
      "locId": "L28666002",
      "locName": "Corkscrew Back Country (No Public Access)",
      "obsDt": "2026-04-24 08:42",
      "howMany": 8,
      "lat": 26.3755326,
      "lng": -81.6036685,
      "obsValid": true,
      "obsReviewed": false,
      "locationPrivate": true,
      "subId": "S326520378",
      "displayName": "Roseate Spoonbill",
      "markerColor": "#FF69B4"
    },
    {
      "speciesCode": "rosspo1",
      "comName": "Roseate Spoonbill",
      "sciName": "Platalea ajaja",
      "locId": "L823147",
      "locName": "J. N. Ding Darling NWR--Wildlife Drive",
      "obsDt": "2026-04-23 16:35",
      "howMany": 3,
      "lat": 26.4540529,
      "lng": -82.1155071,
      "obsValid": true,
      "obsReviewed": false,
      "locationPrivate": false,
      "subId": "S326195900",
      "displayName": "Roseate Spoonbill",
      "markerColor": "#FF69B4"
    },
    {
      "speciesCode": "rosspo1",
      "comName": "Roseate Spoonbill",
      "sciName": "Platalea ajaja",
      "locId": "L63640012",
      "locName": "Naples, Florida, US (26.405, -81.584)",
      "obsDt": "2026-04-23 07:38",
      "howMany": 3,
      "lat": 26.4045717,
      "lng": -81.5837467,
      "obsValid": true,
      "obsReviewed": false,
      "locationPrivate": true,
      "subId": "S325887521",
      "displayName": "Roseate Spoonbill",
      "markerColor": "#FF69B4"
    },
    {
      "speciesCode": "rosspo1",
      "comName": "Roseate Spoonbill",
      "sciName": "Platalea ajaja",
      "locId": "L63588280",
      "locName": "Bay Forest",
      "obsDt": "2026-04-22 09:15",
      "howMany": 1,
      "lat": 26.3096905,
      "lng": -81.8213722,
      "obsValid": true,
      "obsReviewed": false,
      "locationPrivate": true,
      "subId": "S325613199",
      "displayName": "Roseate Spoonbill",
      "markerColor": "#FF69B4"
    },
    {
      "speciesCode": "rosspo1",
      "comName": "Roseate Spoonbill",
      "sciName": "Platalea ajaja",
      "locId": "L63220941",
      "locName": "Carlos Point",
      "obsDt": "2026-04-22 07:45",
      "howMany": 1,
      "lat": 26.4026241,
      "lng": -81.885231,
      "obsValid": true,
      "obsReviewed": false,
      "locationPrivate": true,
      "subId": "S325413763",
      "displayName": "Roseate Spoonbill",
      "markerColor": "#FF69B4"
    },
    {
      "speciesCode": "limpki",
      "comName": "Limpkin",
      "sciName": "Aramus guarauna",
      "locId": "L28666002",
      "locName": "Corkscrew Back Country (No Public Access)",
      "obsDt": "2026-04-24 08:42",
      "howMany": 3,
      "lat": 26.3755326,
      "lng": -81.6036685,
      "obsValid": true,
      "obsReviewed": false,
      "locationPrivate": true,
      "subId": "S326520378",
      "displayName": "Limpkin",
      "markerColor": "#D2691E"
    },
    {
      "speciesCode": "limpki",
      "comName": "Limpkin",
      "sciName": "Aramus guarauna",
      "locId": "L9067643",
      "locName": "Sunshine Boulevard North",
      "obsDt": "2026-04-24 07:05",
      "howMany": 5,
      "lat": 26.631066,
      "lng": -81.6864361,
      "obsValid": true,
      "obsReviewed": false,
      "locationPrivate": false,
      "subId": "S326364772",
      "displayName": "Limpkin",
      "markerColor": "#D2691E"
    },
    {
      "speciesCode": "limpki",
      "comName": "Limpkin",
      "sciName": "Aramus guarauna",
      "locId": "L1556487",
      "locName": "Billy Creek Preserve",
      "obsDt": "2026-04-23 15:50",
      "howMany": 1,
      "lat": 26.6619555,
      "lng": -81.8234558,
      "obsValid": true,
      "obsReviewed": false,
      "locationPrivate": false,
      "subId": "S326155416",
      "displayName": "Limpkin",
      "markerColor": "#D2691E"
    },
    {
      "speciesCode": "limpki",
      "comName": "Limpkin",
      "sciName": "Aramus guarauna",
      "locId": "L830108",
      "locName": "Harns Marsh",
      "obsDt": "2026-04-23 09:25",
      "howMany": 4,
      "lat": 26.6496729,
      "lng": -81.6869336,
      "obsValid": true,
      "obsReviewed": false,
      "locationPrivate": false,
      "subId": "S326058842",
      "displayName": "Limpkin",
      "markerColor": "#D2691E"
    },
    {
      "speciesCode": "limpki",
      "comName": "Limpkin",
      "sciName": "Aramus guarauna",
      "locId": "L4138659",
      "locName": "IslandWalk (access by permission only)",
      "obsDt": "2026-04-23 09:21",
      "howMany": 10,
      "lat": 26.2483903,
      "lng": -81.7121029,
      "obsValid": true,
      "obsReviewed": false,
      "locationPrivate": false,
      "subId": "S326013290",
      "displayName": "Limpkin",
      "markerColor": "#D2691E"
    },
    {
      "speciesCode": "limpki",
      "comName": "Limpkin",
      "sciName": "Aramus guarauna",
      "locId": "L127407",
      "locName": "Audubon Corkscrew Swamp Sanctuary",
      "obsDt": "2026-04-23 08:41",
      "howMany": 1,
      "lat": 26.375442,
      "lng": -81.6040206,
      "obsValid": true,
      "obsReviewed": false,
      "locationPrivate": false,
      "subId": "S326033456",
      "displayName": "Limpkin",
      "markerColor": "#D2691E"
    },
    {
      "speciesCode": "limpki",
      "comName": "Limpkin",
      "sciName": "Aramus guarauna",
      "locId": "L63640012",
      "locName": "Naples, Florida, US (26.405, -81.584)",
      "obsDt": "2026-04-23 07:38",
      "howMany": 4,
      "lat": 26.4045717,
      "lng": -81.5837467,
      "obsValid": true,
      "obsReviewed": false,
      "locationPrivate": true,
      "subId": "S325887521",
      "displayName": "Limpkin",
      "markerColor": "#D2691E"
    },
    {
      "speciesCode": "limpki",
      "comName": "Limpkin",
      "sciName": "Aramus guarauna",
      "locId": "L631290",
      "locName": "West Marsh Preserve",
      "obsDt": "2026-04-22 13:45",
      "howMany": 3,
      "lat": 26.6475354,
      "lng": -81.7027473,
      "obsValid": true,
      "obsReviewed": false,
      "locationPrivate": false,
      "subId": "S325595208",
      "displayName": "Limpkin",
      "markerColor": "#D2691E"
    },
    {
      "speciesCode": "limpki",
      "comName": "Limpkin",
      "sciName": "Aramus guarauna",
      "locId": "L63562178",
      "locName": "Billy Bowlegs Park, Fort Myers US-FL 26.66310, -81.82466",
      "obsDt": "2026-04-22 07:51",
      "howMany": 1,
      "lat": 26.663103,
      "lng": -81.824663,
      "obsValid": true,
      "obsReviewed": false,
      "locationPrivate": true,
      "subId": "S325482027",
      "displayName": "Limpkin",
      "markerColor": "#D2691E"
    },
    {
      "speciesCode": "limpki",
      "comName": "Limpkin",
      "sciName": "Aramus guarauna",
      "locId": "L17481267",
      "locName": "Condo pond",
      "obsDt": "2026-04-22 07:25",
      "howMany": 1,
      "lat": 26.565445,
      "lng": -81.756927,
      "obsValid": true,
      "obsReviewed": false,
      "locationPrivate": true,
      "subId": "S325737209",
      "displayName": "Limpkin",
      "markerColor": "#D2691E"
    }
  ]
}