{
  "lastUpdated": "2026-04-17T16:03:12Z",
  "centerLat": 26.4317,
  "centerLng": -81.8187,
  "distKm": 16,
  "backDays": 2,
  "observations": [
    {
      "speciesCode": "rosspo1",
      "comName": "Roseate Spoonbill",
      "sciName": "Platalea ajaja",
      "locId": "L1070297",
      "locName": "Little Estero Lagoon",
      "obsDt": "2026-04-17 07:45",
      "howMany": 11,
      "lat": 26.4150482,
      "lng": -81.9031191,
      "obsValid": true,
      "obsReviewed": false,
      "locationPrivate": false,
      "subId": "S322850251",
      "displayName": "Roseate Spoonbill",
      "markerColor": "#FF69B4"
    },
    {
      "speciesCode": "rosspo1",
      "comName": "Roseate Spoonbill",
      "sciName": "Platalea ajaja",
      "locId": "L31132962",
      "locName": "Bonita Bay Rookery (restricted access)",
      "obsDt": "2026-04-16 18:00",
      "howMany": 1,
      "lat": 26.3405255,
      "lng": -81.8226994,
      "obsValid": true,
      "obsReviewed": false,
      "locationPrivate": true,
      "subId": "S322713616",
      "displayName": "Roseate Spoonbill",
      "markerColor": "#FF69B4"
    },
    {
      "speciesCode": "rosspo1",
      "comName": "Roseate Spoonbill",
      "sciName": "Platalea ajaja",
      "locId": "L62994433",
      "locName": "Estero Bay",
      "obsDt": "2026-04-16 17:40",
      "howMany": 3,
      "lat": 26.404241,
      "lng": -81.870223,
      "obsValid": true,
      "obsReviewed": false,
      "locationPrivate": true,
      "subId": "S322706654",
      "displayName": "Roseate Spoonbill",
      "markerColor": "#FF69B4"
    },
    {
      "speciesCode": "rosspo1",
      "comName": "Roseate Spoonbill",
      "sciName": "Platalea ajaja",
      "locId": "L160668",
      "locName": "Lovers Key SP",
      "obsDt": "2026-04-16 09:21",
      "howMany": 1,
      "lat": 26.3911316,
      "lng": -81.8713188,
      "obsValid": true,
      "obsReviewed": false,
      "locationPrivate": false,
      "subId": "S322458963",
      "displayName": "Roseate Spoonbill",
      "markerColor": "#FF69B4"
    }
  ]
}