{
  "lastUpdated": "2026-04-22T10:23:10Z",
  "centerLat": 26.4317,
  "centerLng": -81.8187,
  "distKm": 32,
  "backDays": 3,
  "observations": [
    {
      "speciesCode": "burowl",
      "comName": "Burrowing Owl",
      "sciName": "Athene cunicularia",
      "locId": "L21160777",
      "locName": "1018 Southeast 38th Street, Cape Coral, Florida, US (26.582, -81.954)",
      "obsDt": "2026-04-21 14:05",
      "howMany": 2,
      "lat": 26.5817242,
      "lng": -81.953777,
      "obsValid": true,
      "obsReviewed": false,
      "locationPrivate": true,
      "subId": "S325162803",
      "displayName": "Burrowing Owl",
      "markerColor": "#8B4513"
    },
    {
      "speciesCode": "burowl",
      "comName": "Burrowing Owl",
      "sciName": "Athene cunicularia",
      "locId": "L63508877",
      "locName": "15501 Old McGregor Blvd",
      "obsDt": "2026-04-21 11:15",
      "howMany": 1,
      "lat": 26.51685,
      "lng": -81.9454,
      "obsValid": true,
      "obsReviewed": false,
      "locationPrivate": true,
      "subId": "S325200424",
      "displayName": "Burrowing Owl",
      "markerColor": "#8B4513"
    },
    {
      "speciesCode": "burowl",
      "comName": "Burrowing Owl",
      "sciName": "Athene cunicularia",
      "locId": "L1340123",
      "locName": "Cape Coral Public Library",
      "obsDt": "2026-04-20 11:27",
      "howMany": 3,
      "lat": 26.5799318,
      "lng": -81.9950776,
      "obsValid": true,
      "obsReviewed": false,
      "locationPrivate": false,
      "subId": "S324683705",
      "displayName": "Burrowing Owl",
      "markerColor": "#8B4513"
    },
    {
      "speciesCode": "burowl",
      "comName": "Burrowing Owl",
      "sciName": "Athene cunicularia",
      "locId": "L8908003",
      "locName": "SW 9th Ave and 11th AVe",
      "obsDt": "2026-04-19 19:14",
      "howMany": 5,
      "lat": 26.5709032,
      "lng": -81.9937058,
      "obsValid": true,
      "obsReviewed": false,
      "locationPrivate": false,
      "subId": "S324425819",
      "displayName": "Burrowing Owl",
      "markerColor": "#8B4513"
    },
    {
      "speciesCode": "burowl",
      "comName": "Burrowing Owl",
      "sciName": "Athene cunicularia",
      "locId": "L886942",
      "locName": "Pelican Blvd. Baseball Fields",
      "obsDt": "2026-04-19 12:40",
      "howMany": 5,
      "lat": 26.5747491,
      "lng": -81.9834566,
      "obsValid": true,
      "obsReviewed": false,
      "locationPrivate": false,
      "subId": "S324283702",
      "displayName": "Burrowing Owl",
      "markerColor": "#8B4513"
    },
    {
      "speciesCode": "burowl",
      "comName": "Burrowing Owl",
      "sciName": "Athene cunicularia",
      "locId": "L631290",
      "locName": "West Marsh Preserve",
      "obsDt": "2026-04-19 06:59",
      "howMany": 1,
      "lat": 26.6475354,
      "lng": -81.7027473,
      "obsValid": true,
      "obsReviewed": false,
      "locationPrivate": false,
      "subId": "S324177516",
      "displayName": "Burrowing Owl",
      "markerColor": "#8B4513"
    },
    {
      "speciesCode": "rosspo1",
      "comName": "Roseate Spoonbill",
      "sciName": "Platalea ajaja",
      "locId": "L127407",
      "locName": "Audubon Corkscrew Swamp Sanctuary",
      "obsDt": "2026-04-21 08:00",
      "howMany": 2,
      "lat": 26.375442,
      "lng": -81.6040206,
      "obsValid": true,
      "obsReviewed": false,
      "locationPrivate": false,
      "subId": "S325165363",
      "displayName": "Roseate Spoonbill",
      "markerColor": "#FF69B4"
    },
    {
      "speciesCode": "rosspo1",
      "comName": "Roseate Spoonbill",
      "sciName": "Platalea ajaja",
      "locId": "L12757465",
      "locName": "J.N. Ding Darling National Wildlife Refuge, Sanibel US-FL 26.45145, -82.11297",
      "obsDt": "2026-04-21 07:18",
      "howMany": 14,
      "lat": 26.451452,
      "lng": -82.112968,
      "obsValid": true,
      "obsReviewed": false,
      "locationPrivate": true,
      "subId": "S324991373",
      "displayName": "Roseate Spoonbill",
      "markerColor": "#FF69B4"
    },
    {
      "speciesCode": "rosspo1",
      "comName": "Roseate Spoonbill",
      "sciName": "Platalea ajaja",
      "locId": "L63406574",
      "locName": "375 Sanctuary Rd, Naples US-FL (26.3755,-81.6041)",
      "obsDt": "2026-04-20 09:17",
      "howMany": 1,
      "lat": 26.375514,
      "lng": -81.604135,
      "obsValid": true,
      "obsReviewed": false,
      "locationPrivate": true,
      "subId": "S324700870",
      "displayName": "Roseate Spoonbill",
      "markerColor": "#FF69B4"
    },
    {
      "speciesCode": "rosspo1",
      "comName": "Roseate Spoonbill",
      "sciName": "Platalea ajaja",
      "locId": "L127397",
      "locName": "J. N. Ding Darling NWR (please consider using a more precise location)",
      "obsDt": "2026-04-20 07:00",
      "howMany": 12,
      "lat": 26.4476747,
      "lng": -82.1111298,
      "obsValid": true,
      "obsReviewed": false,
      "locationPrivate": false,
      "subId": "S324729257",
      "displayName": "Roseate Spoonbill",
      "markerColor": "#FF69B4"
    },
    {
      "speciesCode": "rosspo1",
      "comName": "Roseate Spoonbill",
      "sciName": "Platalea ajaja",
      "locId": "L6595361",
      "locName": "Bailey Homestead Wetlands Preserve",
      "obsDt": "2026-04-19 19:00",
      "howMany": 1,
      "lat": 26.4447115,
      "lng": -82.0491171,
      "obsValid": true,
      "obsReviewed": false,
      "locationPrivate": false,
      "subId": "S324465026",
      "displayName": "Roseate Spoonbill",
      "markerColor": "#FF69B4"
    },
    {
      "speciesCode": "rosspo1",
      "comName": "Roseate Spoonbill",
      "sciName": "Platalea ajaja",
      "locId": "L63358096",
      "locName": "Before Apaloosa Ln., Salrose Ln.",
      "obsDt": "2026-04-19 18:37",
      "howMany": 3,
      "lat": 26.5488537,
      "lng": -81.8097232,
      "obsValid": true,
      "obsReviewed": false,
      "locationPrivate": true,
      "subId": "S324455960",
      "displayName": "Roseate Spoonbill",
      "markerColor": "#FF69B4"
    },
    {
      "speciesCode": "rosspo1",
      "comName": "Roseate Spoonbill",
      "sciName": "Platalea ajaja",
      "locId": "L59336620",
      "locName": "Bench near sanctuary",
      "obsDt": "2026-04-19 15:17",
      "howMany": 1,
      "lat": 26.345851,
      "lng": -81.823796,
      "obsValid": true,
      "obsReviewed": false,
      "locationPrivate": true,
      "subId": "S324336775",
      "displayName": "Roseate Spoonbill",
      "markerColor": "#FF69B4"
    },
    {
      "speciesCode": "rosspo1",
      "comName": "Roseate Spoonbill",
      "sciName": "Platalea ajaja",
      "locId": "L63309446",
      "locName": "1200 Periwinkle Way, Sanibel US-FL 26.44554, -82.04590",
      "obsDt": "2026-04-19 12:26",
      "howMany": 4,
      "lat": 26.445535,
      "lng": -82.045904,
      "obsValid": true,
      "obsReviewed": false,
      "locationPrivate": true,
      "subId": "S324233188",
      "displayName": "Roseate Spoonbill",
      "markerColor": "#FF69B4"
    },
    {
      "speciesCode": "rosspo1",
      "comName": "Roseate Spoonbill",
      "sciName": "Platalea ajaja",
      "locId": "L1070297",
      "locName": "Little Estero Lagoon",
      "obsDt": "2026-04-19 07:51",
      "howMany": 7,
      "lat": 26.4150482,
      "lng": -81.9031191,
      "obsValid": true,
      "obsReviewed": false,
      "locationPrivate": false,
      "subId": "S324095556",
      "displayName": "Roseate Spoonbill",
      "markerColor": "#FF69B4"
    },
    {
      "speciesCode": "rosspo1",
      "comName": "Roseate Spoonbill",
      "sciName": "Platalea ajaja",
      "locId": "L3444435",
      "locName": "J. N. Ding Darling NWR--Education Center",
      "obsDt": "2026-04-19 07:00",
      "howMany": 2,
      "lat": 26.4456225,
      "lng": -82.1128893,
      "obsValid": true,
      "obsReviewed": false,
      "locationPrivate": false,
      "subId": "S324089337",
      "displayName": "Roseate Spoonbill",
      "markerColor": "#FF69B4"
    },
    {
      "speciesCode": "rosspo1",
      "comName": "Roseate Spoonbill",
      "sciName": "Platalea ajaja",
      "locId": "L4355354",
      "locName": "Hendry Creek headwater wetland area",
      "obsDt": "2026-04-19 06:51",
      "howMany": 1,
      "lat": 26.5198636,
      "lng": -81.8755352,
      "obsValid": true,
      "obsReviewed": false,
      "locationPrivate": false,
      "subId": "S324032154",
      "displayName": "Roseate Spoonbill",
      "markerColor": "#FF69B4"
    },
    {
      "speciesCode": "limpki",
      "comName": "Limpkin",
      "sciName": "Aramus guarauna",
      "locId": "L830108",
      "locName": "Harns Marsh",
      "obsDt": "2026-04-21 12:45",
      "howMany": 1,
      "lat": 26.6496729,
      "lng": -81.6869336,
      "obsValid": true,
      "obsReviewed": false,
      "locationPrivate": false,
      "subId": "S325148890",
      "displayName": "Limpkin",
      "markerColor": "#D2691E"
    },
    {
      "speciesCode": "limpki",
      "comName": "Limpkin",
      "sciName": "Aramus guarauna",
      "locId": "L7197115",
      "locName": "Corkscrew Swamp Sanctuary Boardwalk, Naples, Florida, US (26.376, -81.604)",
      "obsDt": "2026-04-21 10:29",
      "howMany": 1,
      "lat": 26.3755341,
      "lng": -81.6044709,
      "obsValid": true,
      "obsReviewed": false,
      "locationPrivate": true,
      "subId": "S325150102",
      "displayName": "Limpkin",
      "markerColor": "#D2691E"
    },
    {
      "speciesCode": "limpki",
      "comName": "Limpkin",
      "sciName": "Aramus guarauna",
      "locId": "L17481267",
      "locName": "Condo pond",
      "obsDt": "2026-04-21 08:23",
      "howMany": 1,
      "lat": 26.565445,
      "lng": -81.756927,
      "obsValid": true,
      "obsReviewed": false,
      "locationPrivate": true,
      "subId": "S325069336",
      "displayName": "Limpkin",
      "markerColor": "#D2691E"
    },
    {
      "speciesCode": "limpki",
      "comName": "Limpkin",
      "sciName": "Aramus guarauna",
      "locId": "L63469895",
      "locName": "14818 Ben C Pratt Six Mile Cypress Pkwy, Fort Myers US-FL 26.52808, -81.86838",
      "obsDt": "2026-04-21 08:23",
      "howMany": 1,
      "lat": 26.528077,
      "lng": -81.868377,
      "obsValid": true,
      "obsReviewed": false,
      "locationPrivate": true,
      "subId": "S325005000",
      "displayName": "Limpkin",
      "markerColor": "#D2691E"
    },
    {
      "speciesCode": "limpki",
      "comName": "Limpkin",
      "sciName": "Aramus guarauna",
      "locId": "L10487542",
      "locName": "US-41--Walmart",
      "obsDt": "2026-04-21 08:21",
      "howMany": 1,
      "lat": 26.526556,
      "lng": -81.8702003,
      "obsValid": true,
      "obsReviewed": false,
      "locationPrivate": false,
      "subId": "S325270397",
      "displayName": "Limpkin",
      "markerColor": "#D2691E"
    },
    {
      "speciesCode": "limpki",
      "comName": "Limpkin",
      "sciName": "Aramus guarauna",
      "locId": "L127407",
      "locName": "Audubon Corkscrew Swamp Sanctuary",
      "obsDt": "2026-04-21 08:14",
      "howMany": 1,
      "lat": 26.375442,
      "lng": -81.6040206,
      "obsValid": true,
      "obsReviewed": false,
      "locationPrivate": false,
      "subId": "S325165002",
      "displayName": "Limpkin",
      "markerColor": "#D2691E"
    },
    {
      "speciesCode": "limpki",
      "comName": "Limpkin",
      "sciName": "Aramus guarauna",
      "locId": "L63493288",
      "locName": "2500 Rita Ave N, Lehigh Acres US-FL 26.63556, -81.68621",
      "obsDt": "2026-04-21 07:13",
      "howMany": 4,
      "lat": 26.635563,
      "lng": -81.686209,
      "obsValid": true,
      "obsReviewed": false,
      "locationPrivate": true,
      "subId": "S325125869",
      "displayName": "Limpkin",
      "markerColor": "#D2691E"
    },
    {
      "speciesCode": "limpki",
      "comName": "Limpkin",
      "sciName": "Aramus guarauna",
      "locId": "L9067643",
      "locName": "Sunshine Boulevard North",
      "obsDt": "2026-04-21 07:12",
      "howMany": 2,
      "lat": 26.631066,
      "lng": -81.6864361,
      "obsValid": true,
      "obsReviewed": false,
      "locationPrivate": false,
      "subId": "S325302471",
      "displayName": "Limpkin",
      "markerColor": "#D2691E"
    },
    {
      "speciesCode": "limpki",
      "comName": "Limpkin",
      "sciName": "Aramus guarauna",
      "locId": "L63425271",
      "locName": "Shady Hollow Bld",
      "obsDt": "2026-04-20 14:03",
      "howMany": 1,
      "lat": 26.311698,
      "lng": -81.633811,
      "obsValid": true,
      "obsReviewed": false,
      "locationPrivate": true,
      "subId": "S324786175",
      "displayName": "Limpkin",
      "markerColor": "#D2691E"
    },
    {
      "speciesCode": "limpki",
      "comName": "Limpkin",
      "sciName": "Aramus guarauna",
      "locId": "L797480",
      "locName": "Fred W. Coyle Freedom Park",
      "obsDt": "2026-04-20 10:39",
      "howMany": 1,
      "lat": 26.1745813,
      "lng": -81.7883635,
      "obsValid": true,
      "obsReviewed": false,
      "locationPrivate": false,
      "subId": "S324683152",
      "displayName": "Limpkin",
      "markerColor": "#D2691E"
    },
    {
      "speciesCode": "limpki",
      "comName": "Limpkin",
      "sciName": "Aramus guarauna",
      "locId": "L1556487",
      "locName": "Billy Creek Preserve",
      "obsDt": "2026-04-20 07:30",
      "howMany": 5,
      "lat": 26.6619555,
      "lng": -81.8234558,
      "obsValid": true,
      "obsReviewed": false,
      "locationPrivate": false,
      "subId": "S324791612",
      "displayName": "Limpkin",
      "markerColor": "#D2691E"
    },
    {
      "speciesCode": "limpki",
      "comName": "Limpkin",
      "sciName": "Aramus guarauna",
      "locId": "L424819",
      "locName": "Six Mile Cypress Slough Preserve",
      "obsDt": "2026-04-20 07:18",
      "howMany": 1,
      "lat": 26.5716209,
      "lng": -81.8258929,
      "obsValid": true,
      "obsReviewed": false,
      "locationPrivate": false,
      "subId": "S324599449",
      "displayName": "Limpkin",
      "markerColor": "#D2691E"
    },
    {
      "speciesCode": "limpki",
      "comName": "Limpkin",
      "sciName": "Aramus guarauna",
      "locId": "L63278104",
      "locName": "10711 Vivaldi Ct, Fort Myers US-FL 26.47647, -81.77930",
      "obsDt": "2026-04-19 08:57",
      "howMany": 1,
      "lat": 26.476466,
      "lng": -81.779297,
      "obsValid": true,
      "obsReviewed": false,
      "locationPrivate": true,
      "subId": "S324088035",
      "displayName": "Limpkin",
      "markerColor": "#D2691E"
    },
    {
      "speciesCode": "limpki",
      "comName": "Limpkin",
      "sciName": "Aramus guarauna",
      "locId": "L631290",
      "locName": "West Marsh Preserve",
      "obsDt": "2026-04-19 06:59",
      "howMany": 15,
      "lat": 26.6475354,
      "lng": -81.7027473,
      "obsValid": true,
      "obsReviewed": false,
      "locationPrivate": false,
      "subId": "S324177516",
      "displayName": "Limpkin",
      "markerColor": "#D2691E"
    }
  ]
}