{
  "lastUpdated": "2026-04-17T16:44:55Z",
  "centerLat": 26.4317,
  "centerLng": -81.8187,
  "distKm": 32,
  "backDays": 2,
  "observations": [
    {
      "speciesCode": "burowl",
      "comName": "Burrowing Owl",
      "sciName": "Athene cunicularia",
      "locId": "L62935960",
      "locName": "4619 Agualinda Boulevard, Cape Coral, Florida, US (26.565, -82.017)",
      "obsDt": "2026-04-16 07:55",
      "howMany": 1,
      "lat": 26.5653397,
      "lng": -82.0173866,
      "obsValid": true,
      "obsReviewed": false,
      "locationPrivate": true,
      "subId": "S322396031",
      "displayName": "Burrowing Owl",
      "markerColor": "#8B4513"
    },
    {
      "speciesCode": "burowl",
      "comName": "Burrowing Owl",
      "sciName": "Athene cunicularia",
      "locId": "L886942",
      "locName": "Pelican Blvd. Baseball Fields",
      "obsDt": "2026-04-16 07:30",
      "howMany": 4,
      "lat": 26.5747491,
      "lng": -81.9834566,
      "obsValid": true,
      "obsReviewed": false,
      "locationPrivate": false,
      "subId": "S322379330",
      "displayName": "Burrowing Owl",
      "markerColor": "#8B4513"
    },
    {
      "speciesCode": "rosspo1",
      "comName": "Roseate Spoonbill",
      "sciName": "Platalea ajaja",
      "locId": "L1070297",
      "locName": "Little Estero Lagoon",
      "obsDt": "2026-04-17 07:45",
      "howMany": 11,
      "lat": 26.4150482,
      "lng": -81.9031191,
      "obsValid": true,
      "obsReviewed": false,
      "locationPrivate": false,
      "subId": "S322850251",
      "displayName": "Roseate Spoonbill",
      "markerColor": "#FF69B4"
    },
    {
      "speciesCode": "rosspo1",
      "comName": "Roseate Spoonbill",
      "sciName": "Platalea ajaja",
      "locId": "L31132962",
      "locName": "Bonita Bay Rookery (restricted access)",
      "obsDt": "2026-04-16 18:00",
      "howMany": 1,
      "lat": 26.3405255,
      "lng": -81.8226994,
      "obsValid": true,
      "obsReviewed": false,
      "locationPrivate": true,
      "subId": "S322713616",
      "displayName": "Roseate Spoonbill",
      "markerColor": "#FF69B4"
    },
    {
      "speciesCode": "rosspo1",
      "comName": "Roseate Spoonbill",
      "sciName": "Platalea ajaja",
      "locId": "L62994433",
      "locName": "Estero Bay",
      "obsDt": "2026-04-16 17:40",
      "howMany": 3,
      "lat": 26.404241,
      "lng": -81.870223,
      "obsValid": true,
      "obsReviewed": false,
      "locationPrivate": true,
      "subId": "S322706654",
      "displayName": "Roseate Spoonbill",
      "markerColor": "#FF69B4"
    },
    {
      "speciesCode": "rosspo1",
      "comName": "Roseate Spoonbill",
      "sciName": "Platalea ajaja",
      "locId": "L823147",
      "locName": "J. N. Ding Darling NWR--Wildlife Drive",
      "obsDt": "2026-04-16 16:41",
      "howMany": 1,
      "lat": 26.4540529,
      "lng": -82.1155071,
      "obsValid": true,
      "obsReviewed": false,
      "locationPrivate": false,
      "subId": "S322653500",
      "displayName": "Roseate Spoonbill",
      "markerColor": "#FF69B4"
    },
    {
      "speciesCode": "rosspo1",
      "comName": "Roseate Spoonbill",
      "sciName": "Platalea ajaja",
      "locId": "L696144",
      "locName": "J. N. Ding Darling NWR--Observation Tower",
      "obsDt": "2026-04-16 14:31",
      "howMany": 1,
      "lat": 26.4637503,
      "lng": -82.1336322,
      "obsValid": true,
      "obsReviewed": false,
      "locationPrivate": false,
      "subId": "S322595569",
      "displayName": "Roseate Spoonbill",
      "markerColor": "#FF69B4"
    },
    {
      "speciesCode": "rosspo1",
      "comName": "Roseate Spoonbill",
      "sciName": "Platalea ajaja",
      "locId": "L830108",
      "locName": "Harns Marsh",
      "obsDt": "2026-04-16 14:12",
      "howMany": 1,
      "lat": 26.6496729,
      "lng": -81.6869336,
      "obsValid": true,
      "obsReviewed": false,
      "locationPrivate": false,
      "subId": "S322585409",
      "displayName": "Roseate Spoonbill",
      "markerColor": "#FF69B4"
    },
    {
      "speciesCode": "rosspo1",
      "comName": "Roseate Spoonbill",
      "sciName": "Platalea ajaja",
      "locId": "L696149",
      "locName": "J. N. Ding Darling NWR--Red Mangrove Overlook",
      "obsDt": "2026-04-16 14:00",
      "howMany": 2,
      "lat": 26.4571842,
      "lng": -82.1200347,
      "obsValid": true,
      "obsReviewed": false,
      "locationPrivate": false,
      "subId": "S322602584",
      "displayName": "Roseate Spoonbill",
      "markerColor": "#FF69B4"
    },
    {
      "speciesCode": "rosspo1",
      "comName": "Roseate Spoonbill",
      "sciName": "Platalea ajaja",
      "locId": "L678986",
      "locName": "Pond Apple Trail",
      "obsDt": "2026-04-16 10:56",
      "howMany": 3,
      "lat": 26.4474057,
      "lng": -82.0401907,
      "obsValid": true,
      "obsReviewed": false,
      "locationPrivate": false,
      "subId": "S322497925",
      "displayName": "Roseate Spoonbill",
      "markerColor": "#FF69B4"
    },
    {
      "speciesCode": "rosspo1",
      "comName": "Roseate Spoonbill",
      "sciName": "Platalea ajaja",
      "locId": "L4402419",
      "locName": "Ding Darling Indigo Trail",
      "obsDt": "2026-04-16 09:44",
      "howMany": 1,
      "lat": 26.4476939,
      "lng": -82.1140158,
      "obsValid": true,
      "obsReviewed": false,
      "locationPrivate": true,
      "subId": "S322456935",
      "displayName": "Roseate Spoonbill",
      "markerColor": "#FF69B4"
    },
    {
      "speciesCode": "rosspo1",
      "comName": "Roseate Spoonbill",
      "sciName": "Platalea ajaja",
      "locId": "L160668",
      "locName": "Lovers Key SP",
      "obsDt": "2026-04-16 09:21",
      "howMany": 1,
      "lat": 26.3911316,
      "lng": -81.8713188,
      "obsValid": true,
      "obsReviewed": false,
      "locationPrivate": false,
      "subId": "S322458963",
      "displayName": "Roseate Spoonbill",
      "markerColor": "#FF69B4"
    }
  ]
}